ICAO,Station Name,Country,Lat,Long,Elevation,AIRD,Distance to Mountains,Elevation Score,AIRD Score,Distance Score,Final Score
KYKN,Yankton,"South Dakota, United States Of America",42.91999817,-97.37000275,388.0,176.0,465611.723478527,0.2586666666666667,0.48753462603878117,0.2705915885405687,1.0167928812460165
KY50,Wautoma,"Wisconsin, United States Of America",44.02999878,-89.30000305,261.0,0.0,278290.796298539,0.17400000000000004,0.0,0.5640409435239255,0.7380409435239256
KXNO,North Af Auxfld,"South Carolina, United States Of America",33.61999893,-81.06999969,94.0,162.0,179444.122631995,0.06266666666666665,0.4487534626038781,0.7188901270421488,1.2303102563126935
KWWD,Wildwood,"New Jersey, United States Of America",39.02000046,-74.91999817,4.0,142.0,171440.466419569,0.002666666666666706,0.39335180055401664,0.7314283297320608,1.1274467969527442
KWVL,Waterville,"Maine, United States Of America",44.52000046,-69.66999817,87.0,170.0,14230.6708116557,0.05800000000000005,0.4709141274238227,0.9777068091989084,1.5066209366227312
KVPS,Eglin Afb/Valpar,"Florida, United States Of America",30.46999931,-86.51999664,21.0,118.0,294543.416192634,0.014000000000000012,0.3268698060941828,0.538580249427909,0.8794500555220919
KVIS,Visalia Muni,"California, United States Of America",36.31999969,-119.40000153,92.0,281.0,21529.8762374169,0.06133333333333335,0.778393351800554,0.9662721704944858,1.8059988556283733
KVBT,Bentonville,"Arkansas, United States Of America",36.34999847,-94.22000122,390.0,155.0,40902.4878516197,0.26,0.4293628808864266,0.9359238241131518,1.6252867049995783
KVAD,Moody Afb/Valdos,"Georgia, United States Of America",30.96999931,-83.19999695,70.0,176.0,353907.474175585,0.046666666666666634,0.48753462603878117,0.4455829277375612,0.979784220443009
KUDG,Darlington Cnty,"South Carolina, United States Of America",34.45000076,-79.87999725,57.0,157.0,189163.122496599,0.038000000000000034,0.43490304709141275,0.7036647366691288,1.1765677837605415
KUCP,New Castle Muni,"Pennsylvania, United States Of America",41.02999878,-80.41999817,313.0,157.0,113808.026213185,0.20866666666666667,0.43490304709141275,0.8217129693571366,1.465282683115216
KTVF,Thief River,"Minnesota, United States Of America",48.06999969,-96.16999817,339.0,0.0,336591.625705783,0.22599999999999998,0.0,0.4727092325287527,0.6987092325287527
KTTS,Nasa Shuttle Fcl,"Florida, United States Of America",28.57999992,-80.66999817,1.0,94.0,617550.263212259,0.0006666666666667043,0.26038781163434904,0.0325708443920202,0.29362532269303593
KTIK,Tinker Afb,"Oklahoma, United States Of America",35.40000153,-97.37999725,387.0,142.0,118308.374327217,0.258,0.39335180055401664,0.8146629068193064,1.466014707373323
KTDR,Tyndall Drone,"Florida, United States Of America",30.04999924,-85.51999664,4.0,124.0,344080.95324285,0.002666666666666706,0.34349030470914127,0.4609767562480876,0.8071337276238956
KTBN,Fort Leonard Woo,"Missouri, United States Of America",37.72999954,-92.12999725,349.0,149.0,112398.629079597,0.2326666666666667,0.41274238227146814,0.823920873652685,1.4693299225908198
KSVN,Savannah/Hunter,"Georgia, United States Of America",32.02000046,-81.12000275,13.0,154.0,335016.949272812,0.008666666666666711,0.4265927977839335,0.47517605666057455,0.9104355211111748
KSUE,Sturgeon Bay,"Wisconsin, United States Of America",44.84999847,-87.41999817,215.0,0.0,175316.968458054,0.1433333333333333,0.0,0.7253555591136874,0.8686888924470207
KSSC,Shaw Afb/Sumter,"South Carolina, United States Of America",33.97000122,-80.47000122,71.0,156.0,190719.547365805,0.04733333333333334,0.43213296398891965,0.701226504695668,1.180692802017921
KSRC,Searcy,"Arkansas, United States Of America",35.22000122,-91.73000336,80.0,160.0,53518.3939837383,0.053333333333333344,0.44321329639889195,0.916160258062448,1.4127068877946733
KSQI,Sterling Rockfal,"Illinois, United States Of America",41.75,-89.66999817,196.0,150.0,468386.344910884,0.1306666666666667,0.4155124653739612,0.26624497931806673,0.8124241113586947
KSOP,Southern Pines,"North Carolina, United States Of America",35.22999954,-79.40000153,135.0,156.0,141341.559407118,0.08999999999999997,0.43213296398891965,0.7785800547500619,1.3007130187389815
KSMP,Stampede Pass,"Washington, United States Of America",47.27999878,-121.33000183,1206.0,0.0,0.0,0.804,0.0,1.0,1.804
KSMN,Salmon/Lemhi,"Idaho, United States Of America",45.11999893,-113.87000275,1228.0,0.0,0.0,0.8186666666666667,0.0,1.0,1.8186666666666667
KSLG,Siloam Spring,"Arkansas, United States Of America",36.20000076,-94.48000336,361.0,155.0,35228.1039676102,0.2406666666666667,0.4293628808864266,0.9448130833953814,1.6148426309484747
KSKX,Taos Muni Apt,"New Mexico, United States Of America",36.45000076,-105.66999817,2163.0,251.0,237.130280503131,1.0,0.6952908587257618,0.9996285213355055,2.6949193800612674
KSGU,Saint George,"Utah, United States Of America",37.02999878,-113.51999664,877.0,181.0,0.0,0.5846666666666667,0.5013850415512465,1.0,2.086051708217913
KSGT,Stuttgart,"Arkansas, United States Of America",34.59999847,-91.56999969,67.0,140.0,104871.556656981,0.04466666666666663,0.3878116343490305,0.8357124795377409,1.268190780553438
KSGJ,St Augustine,"Florida, United States Of America",29.96999931,-81.33000183,2.0,96.0,531161.621908575,0.0013333333333332975,0.2659279778393352,0.1679037804931552,0.43516509166582373
KSGH,Springfield Muni,"Ohio, United States Of America",39.83000183,-83.83000183,318.0,165.0,244409.650127976,0.21199999999999997,0.45706371191135736,0.617117770761148,1.2861814826725055
KSFZ,Pawtucket,"Rhode Island, United States Of America",41.91999817,-71.5,129.0,156.0,46119.7900832942,0.08599999999999997,0.43213296398891965,0.9277506103794454,1.4458835743683651
KSFM,Sanford Muni,"Maine, United States Of America",43.38000107,-70.72000122,70.0,163.0,23114.0281385066,0.046666666666666634,0.4515235457063712,0.963790502479231,1.461980714852269
KSDY,Sidney Richland,"Montana, United States Of America",47.70000076,-104.19999695,600.0,188.0,89041.8289909747,0.4,0.5207756232686981,0.8605106878483818,1.7812863111170798
KRYM,Camp Ripley,"Minnesota, United States Of America",46.08000183,-94.37000275,344.0,0.0,223956.98780852,0.22933333333333328,0.0,0.6491580807024387,0.878491414035772
KRUT,Rutland State,"Vermont, United States Of America",43.52999878,-72.94999695,238.0,160.0,0.0,0.15866666666666662,0.44321329639889195,1.0,1.6018799630655587
KRKD,Rockland/Knox,"Maine, United States Of America",44.06999969,-69.09999847,15.0,163.0,8713.86834210061,0.010000000000000009,0.4515235457063712,0.9863492078386824,1.4478727535450537
KRCA,Ellsworth Afb,"South Dakota, United States Of America",44.15000153,-103.12000275,993.0,167.0,8390.81565500799,0.6619999999999999,0.4626038781163435,0.9868552890549146,2.111459167171258
KPWT,Bremerton Ntnl,"Washington, United States Of America",47.5,-122.76999664,143.0,242.0,0.0,0.09533333333333338,0.6703601108033241,1.0,1.7656934441366574
KPWG,Mc Gregor,"Texas, United States Of America",31.47999954,-97.31999969,178.0,150.0,149771.612411712,0.1186666666666667,0.4155124653739612,0.7653738761670535,1.2995530082076816
KPVU,Provo Muni,"Utah, United States Of America",40.22000122,-111.72000122,1370.0,180.0,2653.60867489238,0.9133333333333333,0.4986149584487535,0.9958429644474417,2.4077912562295283
KPVG,Norfolk/Hampton,"Virginia, United States Of America",36.77999878,-76.44999695,7.0,160.0,209013.271027033,0.004666666666666708,0.44321329639889195,0.6725683003538062,1.1204482634193649
KPVC,Provincetown,"Massachusetts, United States Of America",42.06999969,-70.22000122,1.0,149.0,129432.124362976,0.0006666666666667043,0.41274238227146814,0.797236891893312,1.210645940831447
KPTV,Porterville,"California, United States Of America",36.02000046,-119.06999969,132.0,256.0,5129.04506316452,0.08799999999999997,0.7091412742382271,0.9919650463612109,1.789106320599438
KPTN,Patterson Memori,"Louisiana, United States Of America",29.71999931,-91.33000183,2.0,126.0,546848.471914794,0.0013333333333332975,0.3490304709141274,0.14332939852021878,0.4936932027676795
KPRX,Paris/Cox Field,"Texas, United States Of America",33.63000107,-95.44999695,165.0,150.0,79629.0527064549,0.10999999999999999,0.4155124653739612,0.8752563608005605,1.4007688261745215
KPQI,Presque Isle,"Maine, United States Of America",46.68000031,-68.05000305,154.0,0.0,15399.5573066559,0.10266666666666668,0.0,0.9758756790995097,1.0785423457661762
KPOB,Pope Afb,"North Carolina, United States Of America",35.16999817,-79.01999664,57.0,148.0,165115.615093584,0.038000000000000034,0.4099722991689751,0.7413365848849545,1.1893088840539296
KPIB,Pine Belt Rgnl,"Mississippi, United States Of America",31.46999931,-89.33000183,91.0,175.0,328613.433884756,0.06066666666666665,0.48476454293628807,0.48520754373753894,1.0306387533404937
KP60,Yellowstone Lake,"Wyoming, United States Of America",44.54999924,-110.41999817,2377.0,0.0,0.0,1.0,0.0,1.0,2.0
KOZR,Ozark/Cairns Aaf,"Alabama, United States Of America",31.28000069,-85.72000122,90.0,160.0,207316.186146421,0.06000000000000005,0.44321329639889195,0.6752268845871048,1.1784401809859968
KOWB,Owensboro/Davies,"Kentucky, United States Of America",37.72000122,-87.16999817,121.0,140.0,202549.792711098,0.08066666666666666,0.3878116343490305,0.6826937229177121,1.1511720239334093
KOTH,North Bend,"Oregon, United States Of America",43.41999817,-124.25,3.0,280.0,2153.88042439271,0.0020000000000000018,0.775623268698061,0.9966258184242168,1.7742490871222778
KOTG,Worthington,"Minnesota, United States Of America",43.65000153,-95.56999969,478.0,0.0,478606.456336887,0.31866666666666665,0.0,0.25023456792961074,0.5689012345962774
KOLU,Columbus Muni,"Nebraska, United States Of America",41.45000076,-97.33000183,438.0,172.0,493170.489011472,0.29200000000000004,0.47645429362880887,0.22741914597621093,0.9958734396050198
KOKK,Kokomo,"Indiana, United States Of America",40.52999878,-86.06999969,251.0,154.0,419768.383427602,0.16733333333333333,0.4265927977839335,0.3424079027706416,0.9363340338879084
KOCH,Nacogdoches,"Texas, United States Of America",31.56999969,-94.72000122,105.0,156.0,301066.727818728,0.06999999999999995,0.43213296398891965,0.5283610944309162,1.0304940584198357
KOAJ,Jacksonville,"North Carolina, United States Of America",34.81999969,-77.62000275,26.0,173.0,279117.72038739,0.01733333333333331,0.4792243767313019,0.5627455178384635,1.0593032279030987
KNTU,Oceana Nas/Souce,"Virginia, United States Of America",36.81999969,-76.01999664,6.0,135.0,234590.202972945,0.0040000000000000036,0.3739612188365651,0.6325005177788813,1.0104617366154462
KNMM,Meridian Nas,"Mississippi, United States Of America",32.52999878,-88.52999878,94.0,167.0,196643.685330903,0.06266666666666665,0.4626038781163435,0.6919459908157637,1.2172165355987739
KNLC,Lemoore Nas/Reev,"California, United States Of America",36.31999969,-119.94999695,69.0,198.0,24361.6141634626,0.04600000000000004,0.5484764542936288,0.9618360848932139,1.5563125391868429
KNJK,El Centro Naf,"California, United States Of America",32.81999969,-115.66999817,-15.0,144.0,16036.754748528,0.0,0.3988919667590028,0.9748774714719404,1.373769438230943
KNID,China Lake (Naf),"California, United States Of America",35.68000031,-117.68000031,682.0,191.0,4571.96897409591,0.45466666666666666,0.5290858725761773,0.9928377391322474,1.9765902783750913
KNFL,Fallon Nas,"Nevada, United States Of America",39.41999817,-118.69999695,1199.0,244.0,8537.46971875976,0.7993333333333333,0.6759002770083102,0.9866255467561681,2.4618591570978117
KNFE,Fentress Naval,"Virginia, United States Of America",36.70000076,-76.12999725,4.0,160.0,235607.588527288,0.002666666666666706,0.44321329639889195,0.6309067228986943,1.076786685964253
KNCA,New River Mcas,"North Carolina, United States Of America",34.72000122,-77.44999695,9.0,131.0,297255.324889884,0.006000000000000005,0.3628808864265928,0.5343318834286467,0.9032127698552395
KNBC,Beaufort Mcas,"South Carolina, United States Of America",32.47000122,-80.72000122,9.0,135.0,303552.107370135,0.006000000000000005,0.3739612188365651,0.5244675997892394,0.9044288186258045
KMYR,Myrtle Beach,"South Carolina, United States Of America",33.68000031,-78.91999817,7.0,143.0,307609.140543191,0.004666666666666708,0.3961218836565097,0.5181120164291622,0.9189005667523386
KMXF,Maxwell Afb/Mgm,"Alabama, United States Of America",32.38000107,-86.37000275,47.0,142.0,82460.8533430279,0.031333333333333324,0.39335180055401664,0.8708201769595242,1.2955053108468741
KMVN,Mount Vernon,"Illinois, United States Of America",38.31999969,-88.87000275,145.0,157.0,165169.51680989,0.09666666666666668,0.43490304709141275,0.7412521446458387,1.2728218584039181
KMTW,Manitowac Muni,"Wisconsin, United States Of America",44.11999893,-87.66999817,197.0,0.0,255626.554687768,0.1313333333333333,0.0,0.5995458237420191,0.7308791570753524
KMSV,Monticello,"New York, United States Of America",41.70000076,-74.77999878,427.0,155.0,5134.11537832638,0.2846666666666666,0.4293628808864266,0.9919571034114497,1.705986650964543
KMRF,Marfa,"Texas, United States Of America",30.37000084,-104.01999664,1476.0,268.0,3906.04827140136,0.984,0.7423822714681441,0.9938809434533964,2.72026321492154
KMQY,Smyrna,"Tennessee, United States Of America",36.02000046,-86.51999664,156.0,162.0,40897.5616206419,0.10399999999999998,0.4487534626038781,0.9359315413464835,1.4886850039503616
KMNM,Menominee,"Michigan, United States Of America",45.11999893,-87.62999725,188.0,0.0,144153.352915345,0.1253333333333333,0.0,0.774175213263543,0.8995085465968763
KMML,Marshall/Ryan,"Minnesota, United States Of America",44.45000076,-95.81999969,358.0,164.0,424717.534378769,0.2386666666666667,0.45429362880886426,0.3346547639398705,1.0276150594154014
KMKY,Marco Island,"Florida, United States Of America",26.0,-81.66999817,2.0,79.0,320120.550854361,0.0013333333333332975,0.2188365650969529,0.4985121492866234,0.7186820477169096
KMKT,Mankato,"Minnesota, United States Of America",44.22000122,-93.91999817,309.0,0.0,347485.983993782,0.20599999999999996,0.0,0.45564257339621966,0.6616425733962197
KMEH,Meacham,"Oregon, United States Of America",45.52000046,-118.41999817,1138.0,221.0,2349.55858899539,0.7586666666666666,0.6121883656509696,0.9963192769605832,2.3671743092782194
KMCF,Macdill Afb/Tamp,"Florida, United States Of America",27.85000038,-82.51999664,3.0,87.0,527190.30402586,0.0020000000000000018,0.2409972299168975,0.17412508576139574,0.4171223156782933
KMBL,Manistee,"Michigan, United States Of America",44.27000046,-86.25,187.0,0.0,263307.968152882,0.1246666666666667,0.0,0.587512433449581,0.7121791001162477
KM19,Newport,"Arkansas, United States Of America",35.65000153,-91.16999817,72.0,153.0,46651.1404349896,0.04800000000000004,0.42382271468144045,0.9269182185035212,1.3987409331849616
KLZU,Lawrenceville,"Georgia, United States Of America",33.97999954,-83.97000122,316.0,182.0,50001.6780110829,0.21066666666666667,0.5041551246537396,0.9216694024456796,1.6364911937660858
KLTS,Altus Afb,"Oklahoma, United States Of America",34.66999817,-99.26999664,416.0,194.0,48416.3350655175,0.2773333333333333,0.5373961218836565,0.9241529363028264,1.7388823915198162
KLSF,Ft Benning/Colum,"Georgia, United States Of America",32.31999969,-84.97000122,68.0,186.0,131855.851993937,0.04533333333333334,0.5152354570637119,0.7934399786457204,1.3540087690427656
KLRF,Little Rock Afb,"Arkansas, United States Of America",34.91999817,-92.12000275,85.0,128.0,51498.9763033931,0.05666666666666664,0.3545706371191136,0.9193237957656853,1.3305610995514656
KLRD,Laredo,"Texas, United States Of America",27.54999924,-99.47000122,150.0,94.0,94011.1500356436,0.09999999999999998,0.26038781163434904,0.8527259513685002,1.2131137630028492
KLPC,Lompoc,"California, United States Of America",34.66999817,-120.47000122,26.0,284.0,0.0,0.01733333333333331,0.7867036011080333,1.0,1.8040369344413665
KLHW,Ft Stewart/Wrigh,"Georgia, United States Of America",31.87999916,-81.56999969,14.0,180.0,331143.043849759,0.009333333333333305,0.4986149584487535,0.4812447595266945,0.9891930513087812
KLGD,La Grande,"Oregon, United States Of America",45.27999878,-118.0,827.0,219.0,2845.45787140272,0.5513333333333333,0.6066481994459834,0.9955424212896772,2.153523954068994
KLEW,Auburn/Lewiston,"Maine, United States Of America",44.02999878,-70.27999878,81.0,160.0,16797.5180010991,0.05400000000000005,0.44321329639889195,0.9736856906649431,1.4708989870638352
KLCI,Laconia Muni,"New Hampshire, United States Of America",43.56999969,-71.41999817,166.0,106.0,0.0,0.11066666666666669,0.29362880886426596,1.0,1.4042954755309327
KLBL,Liberal,"Kansas, United States Of America",37.02999878,-100.97000122,877.0,202.0,192533.608637553,0.5846666666666667,0.5595567867036011,0.698384669999947,1.8426081233702147
KKLS,Kelso Longveiw,"Washington, United States Of America",46.11999893,-122.90000153,4.0,232.0,345.006078624838,0.002666666666666706,0.6426592797783933,0.999459527492406,1.6447854739374659
KJHW,Jamestown,"New York, United States Of America",42.15000153,-79.26999664,520.0,161.0,18380.1831339096,0.3466666666666667,0.44598337950138506,0.9712063517604778,1.7638563979285293
KJAC,Jackson,"Wyoming, United States Of America",43.61999893,-110.73000336,1967.0,0.0,0.0,1.0,0.0,1.0,2.0
KIWD,Ironwood,"Michigan, United States Of America",46.52000046,-90.12000275,373.0,165.0,10900.8341156186,0.2486666666666667,0.45706371191135736,0.9829231960989856,1.6886535746770095
KITH,Ithaca/Tompkins,"New York, United States Of America",42.47999954,-76.44999695,338.0,139.0,0.0,0.22533333333333339,0.3850415512465374,1.0,1.6103748845798709
KISM,Kissimmee/Orland,"Florida, United States Of America",28.28000069,-81.43000031,25.0,99.0,573387.635190895,0.01666666666666672,0.2742382271468144,0.10175422343213694,0.3926591172456181
KILE,Killeen Muni,"Texas, United States Of America",31.07999992,-97.68000031,256.0,138.0,95701.0822143227,0.17066666666666663,0.38227146814404434,0.8500785722674853,1.4030167070781963
KIAB,Mcconnell Afb,"Kansas, United States Of America",37.61999893,-97.26999664,413.0,162.0,304756.458753329,0.2753333333333333,0.4487534626038781,0.5225809118366861,1.2466677077738977
KHYS,Hays Muni,"Kansas, United States Of America",38.84999847,-99.26999664,607.0,202.0,388550.182570364,0.4046666666666666,0.5595567867036011,0.39131306805681937,1.3555365214270871
KHYI,San Marcos,"Texas, United States Of America",29.87999916,-97.87000275,180.0,104.0,101401.790284208,0.12,0.2880886426592798,0.84114807458503,1.24923671724431
KHST,Homestead Afb,"Florida, United States Of America",25.47999954,-80.37000275,1.0,47.0,298856.817042906,0.0006666666666667043,0.13019390581717452,0.5318230508791277,0.6626836233629689
KHOP,Hopkinsville,"Kentucky, United States Of America",36.66999817,-87.5,170.0,167.0,152124.741540937,0.11333333333333329,0.4626038781163435,0.7616875596643591,1.3376247711140359
KHND,Vegas/Henderson,"Nevada, United States Of America",35.97999954,-115.12999725,740.0,136.0,0.0,0.4933333333333333,0.3767313019390582,1.0,1.8700646352723915
KHNB,Huntingburg,"Indiana, United States Of America",38.25,-86.94999695,159.0,161.0,222966.354435766,0.10599999999999998,0.44598337950138506,0.650709966701702,1.202693346203087
KHEZ,Natchez/Hardy,"Mississippi, United States Of America",31.62000084,-91.30000305,82.0,163.0,352342.373343586,0.05466666666666664,0.4515235457063712,0.4480347511218899,0.9542249634949278
KHEF,Manassas Muni,"Virginia, United States Of America",38.72000122,-77.51999664,53.0,132.0,14366.3742969278,0.03533333333333333,0.3656509695290859,0.977494221631563,1.3784785244939821
KHDN,Hayden/Yampa,"Colorado, United States Of America",40.47999954,-107.22000122,2012.0,0.0,0.0,1.0,0.0,1.0,2.0
KGXY,Greeley/Weld,"Colorado, United States Of America",40.43000031,-104.62000275,1420.0,225.0,36033.4191718186,0.9466666666666667,0.6232686980609419,0.9435515093107827,2.5134868740383913
KGVQ,Batavia,"New York, United States Of America",43.02999878,-78.16999817,279.0,147.0,28729.5598416638,0.18600000000000005,0.407202216066482,0.954993438632773,1.548195654699255
KGUS,Grissom Afb/Peru,"Indiana, United States Of America",40.63000107,-86.15000153,245.0,163.0,432023.531955137,0.16333333333333333,0.4515235457063712,0.32320948492822466,0.9380663639679292
KGUC,Gunnison,"Colorado, United States Of America",38.52000046,-106.93000031,2337.0,0.0,0.0,1.0,0.0,1.0,2.0
KGTU,Georgetown,"Texas, United States Of America",30.68000031,-97.68000031,232.0,108.0,80869.6942660041,0.15466666666666662,0.29916897506925205,0.8733128221319446,1.3271484638678632
KGTR,Golden/Columbus,"Mississippi, United States Of America",33.45000076,-88.58000183,80.0,110.0,173136.737929017,0.053333333333333344,0.3047091412742382,0.7287710196929862,1.0868134943005576
KGPZ,Grand Rapids,"Minnesota, United States Of America",47.22000122,-93.51999664,410.0,0.0,132340.976057633,0.2733333333333333,0.0,0.792680002994726,1.0660133363280593
KGNA,Grand Marais,"Minnesota, United States Of America",47.75,-90.34999847,186.0,0.0,0.0,0.124,0.0,1.0,1.124
KGDV,Glendive,"Montana, United States Of America",47.13000107,-104.80000305,749.0,179.0,82673.8505208524,0.4993333333333333,0.49584487534626037,0.8704865042333273,1.865664712912921
KGBD,Great Bend,"Kansas, United States Of America",38.34999847,-98.87000275,573.0,194.0,392589.423061041,0.382,0.5373961218836565,0.3849853579901651,1.3043814798738216
KGAI,Gaithersburg,"Maryland, United States Of America",39.16999817,-77.16999817,151.0,166.0,14564.2639322363,0.10066666666666668,0.4598337950138504,0.9771842157677579,1.537684677448275
KGAD,Gadsden Muni,"Alabama, United States Of America",33.97000122,-86.08000183,169.0,158.0,12439.7944732678,0.11266666666666669,0.4376731301939058,0.9805123233198692,1.5308521201804417
KFOD,Fort Dodge,"Iowa, United States Of America",42.52999878,-94.16999817,347.0,162.0,507712.535986937,0.23133333333333328,0.4487534626038781,0.2046381659259276,0.884724961863139
KFNL,Ft Collins/Lovel,"Colorado, United States Of America",40.45000076,-105.01999664,1529.0,225.0,2869.75702454453,1.0,0.6232686980609419,0.9955043552234696,2.6187730532844116
KFLP,Flippin (Awos),"Arkansas, United States Of America",36.27999878,-92.58000183,215.0,139.0,20419.507450012,0.1433333333333333,0.3850415512465374,0.9680116291303301,1.4963865137102008
KFKL,Franklin,"Pennsylvania, United States Of America",41.36999893,-79.87000275,468.0,171.0,84167.9681053295,0.31200000000000006,0.47368421052631576,0.8681458803210143,1.65383009084733
KFCI,Richmond/Chester,"Virginia, United States Of America",37.40000153,-77.51999664,63.0,159.0,94681.9020639665,0.04200000000000004,0.4404432132963989,0.8516751784888847,1.3341183917852837
KFBG,Fort Bragg/Simmo,"North Carolina, United States Of America",35.11999893,-78.91999817,69.0,167.0,174876.125469893,0.04600000000000004,0.4626038781163435,0.7260461658305787,1.2346500439469223
KFAM,Farmington,"Missouri, United States Of America",37.77000046,-90.41999817,276.0,175.0,23556.8829288824,0.18400000000000005,0.48476454293628807,0.9630967441547156,1.6318612870910036
KEWK,Newton,"Kansas, United States Of America",38.04999924,-97.26999664,468.0,180.0,340323.077041505,0.31200000000000006,0.4986149584487535,0.46686369244893405,1.2774786508976876
KEUL,Caldwell,"Idaho, United States Of America",43.63000107,-116.62000275,741.0,223.0,20597.0257835917,0.494,0.6177285318559557,0.9677335361202704,2.079462067976226
KESC,Escanaba,"Michigan, United States Of America",45.72000122,-87.08000183,180.0,0.0,89623.4876961809,0.12,0.0,0.8595994849495235,0.9795994849495235
KENV,Wendover (Aut),"Utah, United States Of America",40.72000122,-114.01999664,1291.0,173.0,1103.58961738848,0.8606666666666667,0.4792243767313019,0.9982711613365132,2.3381622047344814
KEND,Enid/Vance Afb,"Oklahoma, United States Of America",36.33000183,-97.91999817,392.0,161.0,177264.288470931,0.2613333333333333,0.44598337950138506,0.7223049666874827,1.4296216795222012
KELZ,Wellsville,"New York, United States Of America",42.09999847,-77.98000336,639.0,142.0,0.0,0.42600000000000005,0.39335180055401664,1.0,1.8193518005540166
KEKY,Bessemer,"Alabama, United States Of America",33.31999969,-86.93000031,213.0,176.0,22003.8577707063,0.14200000000000002,0.48753462603878117,0.9655296502789833,1.5950642763177645
KEHR,Henderson City,"Kentucky, United States Of America",37.81999969,-87.66999817,117.0,138.0,246013.093541507,0.07799999999999996,0.38227146814404434,0.6146058814461817,1.074877349590226
KEGI,Duke Fld/Eglin,"Florida, United States Of America",30.64999962,-86.51999664,59.0,149.0,274712.545631362,0.03933333333333333,0.41274238227146814,0.5696464856598713,1.0217222012646727
KEGE,Eagle Co. Region,"Colorado, United States Of America",39.63000107,-106.91999817,1993.0,0.0,0.0,1.0,0.0,1.0,2.0
KEEN,Keene/Dillant,"New Hampshire, United States Of America",42.88000107,-72.26999664,143.0,169.0,765.749305205072,0.09533333333333338,0.46814404432132967,0.9988004082454948,1.5622777859001578
KEAR,Kearney Muni,"Nebraska, United States Of America",40.72000122,-99.0,649.0,199.0,401544.871405659,0.43266666666666664,0.5512465373961218,0.3709561164106066,1.354869320473395
KDYR,Dyersburg,"Tennessee, United States Of America",36.0,-89.40000153,98.0,135.0,182232.623781158,0.06533333333333335,0.3739612188365651,0.7145217744191342,1.1538163265890327
KDWU,Ashland,"Kentucky, United States Of America",38.54999924,-82.73000336,165.0,152.0,75016.5356602513,0.10999999999999999,0.42105263157894735,0.8824821426308929,1.41353477420984
KDVL,Devils Lake,"North Dakota, United States Of America",48.11999893,-98.91999817,439.0,0.0,150051.247854513,0.29266666666666663,0.0,0.7649358106419902,1.0576024773086568
KDLF,Laughlin Afb,"Texas, United States Of America",29.37000084,-100.77999878,328.0,128.0,60892.6421240575,0.21866666666666668,0.3545706371191136,0.9046080604898583,1.4778453642756386
KDIJ,Driggs Reed Mem,"Idaho, United States Of America",43.75,-111.09999847,1896.0,170.0,0.0,1.0,0.4709141274238227,1.0,2.4709141274238227
KCWI,Clinton Muni,"Iowa, United States Of America",41.81999969,-90.31999969,212.0,172.0,469497.670608224,0.1413333333333333,0.47645429362880887,0.26450402162599046,0.8822916485881327
KCVO,Corvallis Muni A,"Oregon, United States Of America",44.5,-123.27999878,75.0,268.0,4918.4800231682,0.050000000000000044,0.7423822714681441,0.9922949089990869,1.784677180467231
KCVN,Clovis Muni,"New Mexico, United States Of America",34.41999817,-103.06999969,1278.0,230.0,67657.248324096,0.852,0.6371191135734072,0.894010903215432,2.383130016788839
KCOF,Patrick Afb/Coco,"Florida, United States Of America",28.22999954,-80.59999847,1.0,61.0,581015.584517521,0.0006666666666667043,0.16897506925207756,0.08980458788718074,0.259446323805925
KCOE,Coeur D'Alene,"Idaho, United States Of America",47.77000046,-116.81999969,693.0,202.0,2052.95015942,0.46199999999999997,0.5595567867036011,0.9967839316772337,2.0183407183808346
KCOD,Cody,"Wyoming, United States Of America",44.52000046,-109.01999664,1550.0,190.0,0.0,1.0,0.5263157894736842,1.0,2.526315789473684
KCIU,Chippewa Intl,"Michigan, United States Of America",46.25,-84.47000122,242.0,0.0,50136.2566082545,0.16133333333333333,0.0,0.9214585770823361,1.0827919104156694
KCGZ,Casa Granda,"Arizona, United States Of America",32.95000076,-111.76999664,444.0,145.0,2293.26555513412,0.29600000000000004,0.40166204986149584,0.9964074633406387,1.6940695132021344
KCBM,Columbus Afb,"Mississippi, United States Of America",33.65000153,-88.44999695,59.0,146.0,156687.875508913,0.03933333333333333,0.40443213296398894,0.7545391393582894,1.1983046056556117
KBVX,Batesville,"Arkansas, United States Of America",35.72999954,-91.65000153,137.0,155.0,3600.07082144558,0.09133333333333338,0.4293628808864266,0.9943602752967771,1.515056489516537
KBTP,Butler Co.,"Pennsylvania, United States Of America",40.77000046,-79.94999695,375.0,169.0,65310.7348289767,0.25,0.46814404432132967,0.8976868559344834,1.6158309002558129
KBOK,Brookings,"Oregon, United States Of America",42.06999969,-124.27999878,140.0,230.0,0.0,0.09333333333333338,0.6371191135734072,1.0,1.7304524469067406
KBMI,Bloomington/Norm,"Illinois, United States Of America",40.47000122,-88.91999817,262.0,143.0,350704.509252181,0.17466666666666664,0.3961218836565097,0.4506005624725426,1.0213891127957189
KBLV,Scott Afb/Bellev,"Illinois, United States Of America",38.52999878,-89.83000183,134.0,161.0,122794.275576386,0.08933333333333338,0.44598337950138506,0.8076354761530956,1.3429521889878142
KBLM,Belmar/Farmdale,"New Jersey, United States Of America",40.16999817,-74.12000275,45.0,140.0,88538.2813432821,0.030000000000000027,0.3878116343490305,0.8612995251376442,1.2791111594866746
KBKX,Brookings,"South Dakota, United States Of America",44.29999924,-96.81999969,494.0,0.0,495050.965165532,0.32933333333333337,0.0,0.2244732684238311,0.5538066017571645
KBHB,Bar Harbor,"Maine, United States Of America",44.45000076,-68.37000275,21.0,152.0,6546.76346746704,0.014000000000000012,0.42105263157894735,0.9897441063009961,1.4247967378799435
KBAD,Barksdale Afb,"Louisiana, United States Of America",32.5,-93.66999817,49.0,125.0,198263.28011059,0.03266666666666662,0.3462603878116344,0.6894087994266943,1.0683358539049954
KAWO,Arlington Muni,"Washington, United States Of America",48.16999817,-122.16999817,38.0,247.0,2837.40556714175,0.02533333333333332,0.6842105263157895,0.9955550357024238,1.7050988953515467
KAUO,Auburn Opelika A,"Alabama, United States Of America",32.61999893,-85.43000031,231.0,137.0,78690.194172682,0.15400000000000003,0.37950138504155123,0.8767271384403249,1.410228523481876
KASH,Nashua/Boire Fld,"New Hampshire, United States Of America",42.77999878,-71.51999664,56.0,164.0,14751.6822787015,0.03733333333333333,0.45429362880886426,0.97689061379968,1.4685175759418776
KARG,Walnut Ridge,"Arkansas, United States Of America",36.11999893,-90.91999817,82.0,140.0,82718.8556561804,0.05466666666666664,0.3878116343490305,0.8704160010165657,1.3128943020322628
KALK,Pioneer Airfield,"Arizona, United States Of America",31.60000038,-110.43000031,1451.0,163.0,0.0,0.9673333333333334,0.4515235457063712,1.0,2.4188568790397045
KAJO,Corona Muni,"California, United States Of America",33.90000153,-117.59999847,161.0,229.0,0.0,0.10733333333333328,0.6343490304709142,1.0,1.7416823638042476
KAIZ,Kaiser Mem,"Missouri, United States Of America",38.09999847,-92.52999878,263.0,170.0,157026.273286489,0.17533333333333334,0.4709141274238227,0.7540090191466696,1.4002564799038257
KAFJ,Washington,"Pennsylvania, United States Of America",40.13000107,-80.27999878,360.0,176.0,49336.7855870418,0.24,0.48753462603878117,0.9227109959072619,1.650245621946043
KADF,Arkadelphia,"Arkansas, United States Of America",34.09999847,-93.06999969,54.0,173.0,39223.724205128,0.03600000000000003,0.4792243767313019,0.9385537070453409,1.4537780837766427
K8D3,Sisseton,"South Dakota, United States Of America",45.66999817,-96.98000336,535.0,123.0,425970.001196956,0.3566666666666667,0.3407202216066482,0.3326927003014502,1.0300795885747651
K7N0,New O Heliport,"Louisiana, United States Of America",29.95000076,-90.06999969,0.0,97.0,501114.603347692,0.0,0.26869806094182824,0.21497421917079393,0.4836722801126222
K2DP,Stumpy Point,"North Carolina, United States Of America",35.68000031,-75.90000153,1.0,158.0,316998.410847995,0.0006666666666667043,0.4376731301939058,0.503403166989923,0.9417429638504955
K1M4,Haleyville,"Alabama, United States Of America",34.27999878,-87.59999847,283.0,167.0,78357.9508263456,0.18866666666666665,0.4626038781163435,0.8772476173699763,1.5285181621529864
KY70,Ionia,"Michigan, United States Of America",42.93000031,-85.06999969,247.0,137.0,407363.56269687,0.16466666666666663,0.37950138504155123,0.3618407910064541,0.906008842714672
KY63,Elbow Lake Muni,"Minnesota, United States Of America",45.97999954,-96.0,367.0,0.0,342661.020789328,0.2446666666666667,0.0,0.4632011647478684,0.707867831414535
KY51,Viroqua Muni,"Wisconsin, United States Of America",43.58000183,-90.90000153,390.0,0.0,308588.173897702,0.26,0.0,0.5165783025472509,0.7765783025472509
KY49,Walker,"Minnesota, United States Of America",47.15000153,-94.65000153,413.0,0.0,216715.805221646,0.2753333333333333,0.0,0.6605018231845222,0.9358351565178555
KY31,West Branch,"Michigan, United States Of America",44.25,-84.18000031,264.0,0.0,259243.382473623,0.17600000000000005,0.0,0.5938798482590704,0.7698798482590704
KY23,Chetek,"Wisconsin, United States Of America",45.29999924,-91.62999725,322.0,0.0,138396.85080778,0.21466666666666667,0.0,0.7831931156189064,0.997859782285573
KY19,Mandan,"North Dakota, United States Of America",46.77000046,-100.90000153,591.0,192.0,160104.361173562,0.394,0.5318559556786704,0.7491870117039254,1.6750429673825957
KXSA,Tappahannock,"Virginia, United States Of America",37.86999893,-76.90000153,41.0,162.0,112609.784476258,0.02733333333333332,0.4487534626038781,0.8235900861860401,1.2996768821232516
KX60,Williston,"Florida, United States Of America",29.35000038,-82.47000122,21.0,149.0,532664.571205215,0.014000000000000012,0.41274238227146814,0.16554932117933852,0.5922917034508066
KX07,Lake Wales,"Florida, United States Of America",27.89999962,-81.62000275,36.0,128.0,530103.05677682,0.02400000000000002,0.3545706371191136,0.16956208562647804,0.5481327227455917
KW96,Quinton,"Virginia, United States Of America",37.5,-77.12000275,35.0,182.0,112932.174202843,0.023333333333333317,0.5041551246537396,0.8230850435368078,1.3505735015238807
KW81,Crewe,"Virginia, United States Of America",37.18000031,-78.09999847,121.0,175.0,62624.7197660874,0.08066666666666666,0.48476454293628807,0.9018946580180333,1.4673258676209882
KW75,Saluda,"Virginia, United States Of America",37.59999847,-76.44999695,8.0,150.0,159110.542872625,0.005333333333333301,0.4155124653739612,0.7507438870822989,1.1715896857895933
KW63,Clarksville,"Virginia, United States Of America",36.59999847,-78.55000305,126.0,188.0,90049.5282047178,0.08399999999999996,0.5207756232686981,0.8589320671958905,1.4637076904645885
KW31,Kenbridge,"Virginia, United States Of America",36.95000076,-78.18000031,159.0,191.0,76655.8030297661,0.10599999999999998,0.5290858725761773,0.8799141329617588,1.515000005537936
KW13,Waynesboro,"Virginia, United States Of America",38.08000183,-78.94999695,440.0,199.0,595.812082691024,0.29333333333333333,0.5512465373961218,0.9990666249949267,1.8436464957243819
KVVV,Ortonville,"Minnesota, United States Of America",45.29999924,-96.41999817,334.0,132.0,405174.122796612,0.22266666666666668,0.3656509695290859,0.36527067861259543,0.9535883148083479
KVTI,Vinton,"Iowa, United States Of America",42.22000122,-92.01999664,256.0,145.0,471942.597878174,0.17066666666666663,0.40166204986149584,0.2606738978851515,0.833002614413314
KVNW,Van Wert,"Ohio, United States Of America",40.86999893,-84.62000275,238.0,173.0,377696.926014075,0.15866666666666662,0.4792243767313019,0.40831533888613086,1.0462063822840995
KVNC,Venice,"Florida, United States Of America",27.06999969,-82.43000031,4.0,95.0,441026.026485441,0.002666666666666706,0.2631578947368421,0.30910654270532734,0.5749311041088361
KVLL,Troy/Oakland,"Michigan, United States Of America",42.54999924,-83.18000031,214.0,146.0,265385.225173409,0.14266666666666672,0.40443213296398894,0.584258286985622,1.1313570866162777
KVKS,Vicksburg,"Mississippi, United States Of America",32.22999954,-90.93000031,31.0,160.0,313507.453798772,0.020666666666666722,0.44321329639889195,0.5088719584901101,0.9727519215556688
KVJI,Abingdon,"Virginia, United States Of America",36.68000031,-82.02999878,636.0,200.0,3841.80628038781,0.42400000000000004,0.554016620498615,0.9939815823468161,1.9719982028454313
KVGC,Hamilton Municip,"New York, United States Of America",42.84999847,-75.56999969,346.0,174.0,5217.17958960851,0.2306666666666667,0.481994459833795,0.9918269783923719,1.7044881048928335
KVER,Boonville,"Missouri, United States Of America",38.95000076,-92.68000031,209.0,151.0,219534.49652871,0.1393333333333333,0.4182825484764543,0.6560861758865544,1.213702057696342
KVDF,Tampa/Vandenburg,"Florida, United States Of America",28.02000046,-82.33000183,5.0,128.0,544054.996641473,0.0033333333333332993,0.3545706371191136,0.14770554340407538,0.5056095138565222
KVBW,Bridgewater,"Virginia, United States Of America",38.36999893,-78.97000122,362.0,188.0,5213.6690078778,0.2413333333333333,0.5207756232686981,0.9918324779271009,1.7539414345291324
KUTA,Tunica,"Mississippi, United States Of America",34.68000031,-90.34999847,58.0,156.0,165503.28510705,0.03866666666666663,0.43213296398891965,0.7407292767901752,1.2115289074457616
KUOX,Oxford,"Mississippi, United States Of America",34.38000107,-89.52999878,123.0,183.0,244075.055940147,0.08199999999999996,0.5069252077562327,0.6176419324235833,1.206567140179816
KUNU,Juneau,"Wisconsin, United States Of America",43.41999817,-88.69999695,281.0,0.0,342808.023953377,0.18733333333333335,0.0,0.4629708755627778,0.6503042088961111
KULM,New Ulm Muni,"Minnesota, United States Of America",44.31999969,-94.5,305.0,0.0,368271.671670054,0.20333333333333337,0.0,0.4230805594594279,0.6264138927927613
KUKT,Quakertown Arp,"Pennsylvania, United States Of America",40.43000031,-75.37999725,156.0,157.0,34096.7060317047,0.10399999999999998,0.43490304709141275,0.9465854854409999,1.4854885325324125
KUGN,Waukegan,"Illinois, United States Of America",42.41999817,-87.87000275,217.0,133.0,445365.864352713,0.14466666666666672,0.3684210526315789,0.3023079289996647,0.8153956482979103
KUBE,Cumberland,"Wisconsin, United States Of America",45.5,-91.98000336,376.0,0.0,138600.329367838,0.2506666666666667,0.0,0.7828743543726278,1.0335410210392943
KTWT,,,37.54999924,-87.94999695,113.0,183.0,219342.325486394,0.07533333333333336,0.5069252077562327,0.6563872232348836,1.2386457643244497
KTWM,Two Harbors,"Minnesota, United States Of America",47.04999924,-91.75,331.0,0.0,216.738794444093,0.22066666666666668,0.0,0.9996604658092024,1.220327132475869
KTVY,Tooele,"Utah, United States Of America",40.61999893,-112.34999847,1310.0,183.0,1415.63384917186,0.8733333333333333,0.5069252077562327,0.9977823255191721,2.378040866608738
KTTF,Monroe,"Michigan, United States Of America",41.93000031,-83.41999817,186.0,119.0,283408.618034928,0.124,0.3296398891966759,0.5560235718929378,1.0096634610896138
KTSP,Tehachapi,"California, United States Of America",35.13000107,-118.43000031,1209.0,237.0,0.0,0.806,0.6565096952908587,1.0,2.4625096952908585
KTOB,Dodge Center,"Minnesota, United States Of America",44.02000046,-92.81999969,394.0,0.0,309113.632925659,0.2626666666666667,0.0,0.5157551397797722,0.7784218064464389
KTNU,Newton Muni,"Iowa, United States Of America",41.66999817,-93.01999664,287.0,127.0,490449.852656471,0.19133333333333336,0.3518005540166205,0.2316811843695624,0.7748150717195162
KTME,Houston Exec,"Texas, United States Of America",29.79999924,-95.90000153,49.0,135.0,268103.436719,0.03266666666666662,0.3739612188365651,0.580000047200189,0.9866279327034208
KTKX,Kennett,"Missouri, United States Of America",36.22000122,-90.02999878,73.0,160.0,138012.878231637,0.048666666666666636,0.44321329639889195,0.7837946314585765,1.2756745945241352
KTKV,Tomahawk Regnl,"Wisconsin, United States Of America",45.47000122,-89.81999969,449.0,0.0,116003.32964932,0.29933333333333334,0.0,0.8182738961738848,1.1176072295072181
KTKC,Tracy,"Minnesota, United States Of America",44.25,-95.62000275,408.0,125.0,429613.607781315,0.272,0.3462603878116344,0.3269847742406001,0.9452451620522344
KTIW,Tacoma,"Washington, United States Of America",47.27000046,-122.58000183,89.0,210.0,25886.8242621905,0.05933333333333335,0.5817174515235457,0.9594467527111468,1.600497537568026
KTEW,Mason,"Michigan, United States Of America",42.56999969,-84.41999817,281.0,138.0,365864.226924085,0.18733333333333335,0.38227146814404434,0.4268519646008506,0.9964567660782283
KTCY,Tracy,"California, United States Of America",37.68000031,-121.43000031,51.0,266.0,0.0,0.03400000000000003,0.7368421052631579,1.0,1.7708421052631578
KT69,,,28.03000069,-97.55000305,15.0,122.0,277241.72709633,0.010000000000000009,0.3379501385041551,0.5656843727197747,0.9136345112239298
KSYN,Stanton,"Minnesota, United States Of America",44.47000122,-93.01999664,280.0,0.0,278145.479982861,0.18666666666666665,0.0,0.5642685901608829,0.7509352568275496
KSYM,Morehead,"Kentucky, United States Of America",38.22000122,-83.58000183,307.0,171.0,97114.9669894913,0.20466666666666666,0.47368421052631576,0.8478636378149385,1.526214515007921
KSXU,Santa Rosa Us66,"New Mexico, United States Of America",34.93000031,-104.65000153,1465.0,242.0,19846.7567053482,0.9766666666666667,0.6703601108033241,0.9689088771800708,2.6159356546500616
KSXK,Maurice,"Iowa, United States Of America",42.97999954,-96.16999817,430.0,0.0,563385.056675413,0.2866666666666666,0.0,0.1174238565998086,0.4040905232664752
KSVH,Statesville,"North Carolina, United States Of America",35.75,-80.94999695,286.0,176.0,18254.7901417598,0.19066666666666665,0.48753462603878117,0.9714027873281409,1.6496040800335887
KSVE,Susanville Muni,"California, United States Of America",40.36999893,-120.56999969,1263.0,233.0,0.0,0.842,0.6454293628808865,1.0,2.4874293628808863
KSVC,Silver City,"New Mexico, United States Of America",32.63000107,-108.15000153,1638.0,266.0,3166.43878832667,1.0,0.7368421052631579,0.9950395856244298,2.7318816908875876
KSUZ,Benton,"Arkansas, United States Of America",34.58000183,-92.48000336,114.0,178.0,33591.5097940455,0.07599999999999996,0.4930747922437673,0.9473769053443333,1.5164516975881006
KSUW,Superior,"Wisconsin, United States Of America",46.68000031,-92.09999847,205.0,0.0,46209.9885558742,0.13666666666666671,0.0,0.9276093091164335,1.0642759757831002
KSUT,Southport,"North Carolina, United States Of America",33.93000031,-78.08000183,6.0,160.0,325541.439746726,0.0040000000000000036,0.44321329639889195,0.4900200049605787,0.9372333013594707
KSRR,Sierra B/Ruidoso,"New Mexico, United States Of America",33.47000122,-105.51999664,2063.0,225.0,546.262848800611,1.0,0.6232686980609419,0.9991442468119011,2.622412944872843
KSPF,Spearfish/Clyde,"South Dakota, United States Of America",44.47000122,-103.77999878,1191.0,177.0,0.0,0.794,0.4903047091412742,1.0,2.2843047091412743
KSPA,Spartanburg,"South Carolina, United States Of America",34.91999817,-81.94999695,242.0,184.0,30961.3270637624,0.16133333333333333,0.5096952908587258,0.9514972427636988,1.6225258669557578
KSOW,Show Low Municip,"Arizona, United States Of America",34.27000046,-110.0,1954.0,173.0,1431.31898366594,1.0,0.4792243767313019,0.9977577538246508,2.4769821305559527
KSNK,Snyder/Winston,"Texas, United States Of America",32.70000076,-100.94999695,738.0,180.0,188491.874524821,0.492,0.4986149584487535,0.7047162864736142,1.6953312449223676
KSNC,Chester,"Connecticut, United States Of America",41.38000107,-72.5,114.0,160.0,49851.1063559771,0.07599999999999996,0.44321329639889195,0.9219052818838971,1.441118578282789
KSMS,Sumter,"South Carolina, United States Of America",34.0,-80.37000275,53.0,173.0,193363.808473985,0.03533333333333333,0.4792243767313019,0.6970841126613951,1.2116418227260304
KSLB,Storm Lake,"Iowa, United States Of America",42.59999847,-95.23000336,450.0,126.0,552075.576020588,0.30000000000000004,0.3490304709141274,0.135140829568698,0.7841713004828255
KSJX,Beaver Island,"Michigan, United States Of America",45.70000076,-85.56999969,202.0,0.0,147028.414989439,0.1346666666666667,0.0,0.7696712578118953,0.904337924478562
KSIK,Sikeston,"Missouri, United States Of America",36.90000153,-89.56999969,95.0,166.0,95544.7350415737,0.06333333333333335,0.4598337950138504,0.8503234993970237,1.3734906277442074
KSIF,Reidsville,"North Carolina, United States Of America",36.43000031,-79.84999847,206.0,182.0,23849.3908005738,0.1373333333333333,0.5041551246537396,0.9626385132054693,1.6041269711925423
KSHL,Sheldon,"Iowa, United States Of America",43.22000122,-95.83000183,430.0,167.0,529665.258940183,0.2866666666666666,0.4626038781163435,0.1702479219326949,0.919518466715705
KSGS,South St Paul,"Minnesota, United States Of America",44.86999893,-93.02999878,250.0,0.0,246558.549972739,0.16666666666666663,0.0,0.6137513915590866,0.7804180582257533
KSFQ,Suffolk,"Virginia, United States Of America",36.68000031,-76.59999847,19.0,179.0,203083.625351562,0.012666666666666715,0.49584487534626037,0.6818574423890411,1.1903689844019683
KSDC,Williamson/Sodus,"New York, United States Of America",43.22999954,-77.12000275,127.0,146.0,46416.7409308711,0.08466666666666667,0.40443213296398894,0.9272854192446637,1.4163842188753193
KSDA,Shenandoah Muni,"Iowa, United States Of America",40.75,-95.41999817,293.0,157.0,526350.312054166,0.19533333333333336,0.43490304709141275,0.1754409830612632,0.8056773634860094
KSCR,Siler City,"North Carolina, United States Of America",35.70000076,-79.5,182.0,166.0,92676.2500791619,0.1213333333333333,0.4598337950138504,0.8548171514126922,1.435984279759876
KSCK,Stockton,"California, United States Of America",37.88000107,-121.22000122,8.0,208.0,27446.2098746598,0.005333333333333301,0.5761772853185596,0.9570038825575641,1.538514501209457
KSAZ,Staples,"Minnesota, United States Of America",46.36999893,-94.80000305,391.0,0.0,240994.494518051,0.2606666666666667,0.0,0.6224678148058121,0.8831344814724789
KS32,Cooperstown,"North Dakota, United States Of America",47.41999817,-98.09999847,435.0,0.0,247363.39568134,0.29000000000000004,0.0,0.6124905529672344,0.9024905529672345
KS25,Watford City,"North Dakota, United States Of America",47.79999924,-103.25,632.0,201.0,34606.6449347256,0.42133333333333334,0.556786703601108,0.945786635870772,1.9239066728052134
KRZT,Chillicothe,"Ohio, United States Of America",39.43000031,-83.01999664,217.0,172.0,171584.43555824,0.14466666666666672,0.47645429362880887,0.7312027935278763,1.352323753823352
KRZN,Siren,"Wisconsin, United States Of America",45.81999969,-92.37000275,301.0,0.0,142570.588509037,0.20066666666666666,0.0,0.7766547076858368,0.9773213743525034
KRYV,Watertown,"Wisconsin, United States Of America",43.16999817,-88.72000122,249.0,52.0,370371.516901937,0.16600000000000004,0.1440443213296399,0.41979102722115924,0.7298353485507991
KRVL,Reedsville,"Pennsylvania, United States Of America",40.68000031,-77.62999725,250.0,166.0,0.0,0.16666666666666663,0.4598337950138504,1.0,1.626500461680517
KRUQ,Salisbury Rowan,"North Carolina, United States Of America",35.65000153,-80.51999664,231.0,168.0,48828.1698895684,0.15400000000000003,0.46537396121883656,0.9235077725974316,1.5428817338162681
KRUG,Rugby,"North Dakota, United States Of America",48.38000107,-100.01999664,469.0,0.0,72474.3045680087,0.31266666666666665,0.0,0.886464698586963,1.1991313652536295
KRRT,Warroad,"Minnesota, United States Of America",48.93000031,-95.33000183,327.0,0.0,336351.090794876,0.21799999999999997,0.0,0.4730860447489315,0.6910860447489315
KRRL,Merrill,"Wisconsin, United States Of America",45.20000076,-89.72000122,397.0,0.0,146008.932531084,0.2646666666666667,0.0,0.771268337616725,1.0359350042833917
KRQB,Big Rapids,"Michigan, United States Of America",43.72000122,-85.5,282.0,0.0,344003.304512272,0.18799999999999994,0.0,0.46109839759508725,0.6490983975950873
KRPH,Graham Muni,"Texas, United States Of America",33.11999893,-98.55000305,341.0,146.0,168886.116144673,0.2273333333333334,0.40443213296398894,0.7354298711073584,1.3671953374046808
KRPD,Rice Lake,"Wisconsin, United States Of America",45.41999817,-91.76999664,334.0,0.0,133947.193264938,0.22266666666666668,0.0,0.7901637683671132,1.0128304350337798
KROX,Roseau Muni,"Minnesota, United States Of America",48.84999847,-95.69999695,320.0,0.0,321113.882027299,0.21333333333333337,0.0,0.49695603702318447,0.7102893703565178
KROS,Rush City,"Minnesota, United States Of America",45.70000076,-92.94999695,282.0,0.0,173329.032547488,0.18799999999999994,0.0,0.7284697787552725,0.9164697787552725
KRNP,Owosso,"Michigan, United States Of America",43.0,-84.12999725,224.0,151.0,336882.002079049,0.14933333333333332,0.4182825484764543,0.4722543406983517,1.0398702225081393
KRNO,Reno,"Nevada, United States Of America",39.5,-119.76999664,1344.0,250.0,936.439623377326,0.896,0.6925207756232687,0.9985330117269979,2.587053787350267
KRNH,New Richmond Mun,"Wisconsin, United States Of America",45.15000153,-92.52999878,302.0,0.0,196577.853296317,0.20133333333333336,0.0,0.6920491206068519,0.8933824539401852
KRMY,Marshall,"Michigan, United States Of America",42.25,-84.94999695,285.0,137.0,407351.699905285,0.18999999999999995,0.37950138504155123,0.3618593747738491,0.9313607598154002
KRMN,Stafford Regnl,"Virginia, United States Of America",38.40000153,-77.44999695,50.0,183.0,47216.400626891,0.033333333333333326,0.5069252077562327,0.9260327048494497,1.4662912459390158
KRID,Richmond,"Indiana, United States Of America",39.75,-84.84999847,346.0,168.0,291449.544887018,0.2306666666666667,0.46537396121883656,0.5434269825329731,1.2394676104184763
KRHP,Andrews,"North Carolina, United States Of America",35.18000031,-83.84999847,515.0,212.0,0.0,0.3433333333333334,0.5872576177285319,1.0,1.9305909510618653
KRGK,Red Wing,"Minnesota, United States Of America",44.58000183,-92.48000336,238.0,0.0,242217.422572601,0.15866666666666662,0.0,0.6205520253945526,0.7792186920612192
KRFI,Henderson Rusk C,"Texas, United States Of America",32.15000153,-94.84999847,133.0,174.0,236200.643716415,0.08866666666666667,0.481994459833795,0.629977666731085,1.2006387932315468
KRDK,Red Oak,"Iowa, United States Of America",41.02000046,-95.26999664,317.0,152.0,537551.816612292,0.21133333333333337,0.42105263157894735,0.15789316105915022,0.7902791259714309
KRCZ,Rockingham,"North Carolina, United States Of America",34.88000107,-79.76999664,110.0,162.0,156295.43192425,0.07333333333333336,0.4487534626038781,0.7551539255357894,1.2772407214730008
KRCX,Ladysmith/Rusk,"Wisconsin, United States Of America",45.5,-91.0,373.0,0.0,97708.7013846379,0.2486666666666667,0.0,0.8469335176307703,1.095600184297437
KRCM,Warrensburg Skyh,"Missouri, United States Of America",38.77999878,-93.80000305,242.0,164.0,278781.583957327,0.16133333333333333,0.45429362880886426,0.5632720955149322,1.1788990576571297
KRBW,Walterboro,"South Carolina, United States Of America",32.91999817,-80.62999725,30.0,175.0,265354.517817039,0.020000000000000018,0.48476454293628807,0.5843063918826864,1.0890709348189747
KRAW,Warsaw,"Missouri, United States Of America",38.34999847,-93.34999847,285.0,164.0,227655.183570178,0.18999999999999995,0.45429362880886426,0.6433646374540077,1.287658266262872
KPZQ,Rogers City,"Michigan, United States Of America",45.40000153,-83.81999969,199.0,0.0,128170.263864264,0.1326666666666667,0.0,0.7992136712900434,0.9318803379567101
KPWC,Pine River Regio,"Minnesota, United States Of America",46.72000122,-94.37999725,394.0,0.0,199810.901909551,0.2626666666666667,0.0,0.6869843579854723,0.949651024652139
KPVF,Placerville,"California, United States Of America",38.72000122,-120.75,788.0,198.0,0.0,0.5253333333333333,0.5484764542936288,1.0,2.073809787626962
KPVB,Platteville,"Wisconsin, United States Of America",42.68000031,-90.43000031,311.0,154.0,408580.021199557,0.20733333333333337,0.4265927977839335,0.35993513653233056,0.9938612676495974
KPTB,Petersburg,"Virginia, United States Of America",37.16999817,-77.51999664,56.0,191.0,106994.149462035,0.03733333333333333,0.5290858725761773,0.8323873118754169,1.3988065177849276
KPSK,Dublin/New Riv,"Virginia, United States Of America",37.13000107,-80.66999817,629.0,206.0,0.0,0.41933333333333334,0.5706371191135734,1.0,1.9899704524469066
KPRO,Perry Muni,"Iowa, United States Of America",41.83000183,-94.16999817,308.0,151.0,549946.959706597,0.20533333333333337,0.4182825484764543,0.1384754334154296,0.7620913152252172
KPQN,Pipestone,"Minnesota, United States Of America",43.97999954,-96.27999878,529.0,0.0,487610.582514144,0.3526666666666667,0.0,0.23612906963487929,0.5887957363015459
KPOV,Ravena/Portage,"Ohio, United States Of America",41.22000122,-81.25,363.0,140.0,145910.36954068,0.242,0.3878116343490305,0.7714227423935681,1.4012343767425985
KPMH,Portsmouth,"Ohio, United States Of America",38.83000183,-82.84999847,200.0,149.0,107727.649657069,0.1333333333333333,0.41274238227146814,0.8312382402668504,1.377313955871652
KPLR,Pell City,"Alabama, United States Of America",33.56999969,-86.25,145.0,196.0,6068.30442238049,0.09666666666666668,0.5429362880886427,0.9904936408045899,1.6300965955598992
KPJC,,,40.79999924,-80.16999817,273.0,0.0,82386.7746974151,0.18200000000000005,0.0,0.8709362255564448,1.052936225556445
KPHP,Philip,"South Dakota, United States Of America",44.04999924,-101.59999847,673.0,186.0,122986.069090917,0.44866666666666666,0.5152354570637119,0.807335020224458,1.7712371439548367
KPGV,Pitt Greenville,"North Carolina, United States Of America",35.63000107,-77.40000153,6.0,164.0,232519.419399102,0.0040000000000000036,0.45429362880886426,0.635744523204236,1.0940381520131002
KPEX,Paynesville,"Minnesota, United States Of America",45.36999893,-94.73000336,359.0,0.0,292337.617660338,0.2393333333333333,0.0,0.5420357638024644,0.7813690971357977
KPEA,Pella,"Iowa, United States Of America",41.40000153,-92.94999695,264.0,148.0,460545.587164726,0.17600000000000005,0.4099722991689751,0.27852799188814664,0.8645002910571218
KPDC,Prairie Du Chien,"Wisconsin, United States Of America",43.02000046,-91.12000275,201.0,156.0,372139.372439624,0.134,0.43213296398891965,0.41702157655140293,0.9831545405403226
KPCZ,Waupaca,"Wisconsin, United States Of America",44.33000183,-89.01999664,248.0,0.0,253977.343408205,0.16533333333333333,0.0,0.6021294111366834,0.7674627444700167
KPCD,Perryvile,"Missouri, United States Of America",37.86999893,-89.87000275,112.0,165.0,64166.3727025305,0.07466666666666666,0.45706371191135736,0.8994795671543587,1.4312099457323828
KPBH,Phillips/Price,"Wisconsin, United States Of America",45.70000076,-90.40000153,445.0,0.0,74186.9143595913,0.29666666666666663,0.0,0.883781793658806,1.1804484603254726
KPAN,Payson,"Arizona, United States Of America",34.25,-111.33000183,1575.0,204.0,2771.40621158417,1.0,0.5650969529085873,0.9956584276117487,2.560755380520336
KOZW,Howell,"Michigan, United States Of America",42.61999893,-83.98000336,288.0,164.0,330962.726241709,0.19199999999999995,0.45429362880886426,0.48152723776642453,1.1278208665752887
KOZS,Camdenton,"Missouri, United States Of America",37.97000122,-92.68000031,321.0,159.0,165099.029776706,0.21399999999999997,0.4404432132963989,0.7413625667686303,1.3958057800650292
KOXV,Knoxville,"Iowa, United States Of America",41.27999878,-93.12000275,280.0,133.0,454286.655910271,0.18666666666666665,0.3684210526315789,0.288332979334852,0.8434206986330975
KOXD,Oxford,"Ohio, United States Of America",39.5,-84.77999878,317.0,164.0,268468.40964106,0.21133333333333337,0.45429362880886426,0.5794282954467825,1.2450552575889802
KOVL,Olivia,"Minnesota, United States Of America",44.77999878,-95.02999878,329.0,0.0,354597.980276387,0.21933333333333338,0.0,0.4445012089304696,0.663834542263803
KOSC,Oscoda/Wurtsmith,"Michigan, United States Of America",44.45000076,-83.40000153,191.0,145.0,226500.040832337,0.1273333333333333,0.40166204986149584,0.6451742371417535,1.1741696203365826
KOQN,West Chester,"Pennsylvania, United States Of America",39.97999954,-75.58000183,141.0,168.0,52798.29905245,0.09399999999999997,0.46537396121883656,0.9172883295293925,1.4766622907482292
KOOA,Oskaloosa Muni,"Iowa, United States Of America",41.22999954,-92.5,256.0,152.0,429293.405668566,0.17066666666666663,0.42105263157894735,0.32748638986286427,0.9192056881084782
KONZ,Detroit/Grosse I,"Michigan, United States Of America",42.09999847,-83.15000153,179.0,136.0,259916.558360726,0.11933333333333329,0.3767313019390582,0.5928252782607546,1.088889913533146
KONM,Socorro,"New Mexico, United States Of America",34.02000046,-106.90000153,1467.0,240.0,0.0,0.978,0.6648199445983379,1.0,2.642819944598338
KONA,Winona Muni,"Minnesota, United States Of America",44.06999969,-91.69999695,200.0,142.0,266091.579677509,0.1333333333333333,0.39335180055401664,0.5831517407137332,1.1098368746010832
KOMH,Orange,"Virginia, United States Of America",38.25,-78.05000305,136.0,193.0,13889.9326597522,0.09066666666666667,0.5346260387811634,0.9782405957458767,1.603533301193707
KOLZ,Oelwen,"Iowa, United States Of America",42.66999817,-91.97000122,328.0,0.0,422220.536227307,0.21866666666666668,0.0,0.3385664598084111,0.5572331264750778
KOLG,Solon Springs,"Wisconsin, United States Of America",46.29999924,-91.81999969,334.0,0.0,82119.0416284096,0.22266666666666668,0.0,0.87135564530623,1.0940223119728967
KOLE,Olean,"New York, United States Of America",42.22999954,-78.37000275,651.0,180.0,11745.9903916626,0.43400000000000005,0.4986149584487535,0.9815992086097131,1.9142141670584665
KOKV,Winchester Rgnl,"Virginia, United States Of America",39.13000107,-78.15000153,213.0,188.0,9837.24833371381,0.14200000000000002,0.5207756232686981,0.9845893663788793,1.6473649896475773
KOIN,Oberlin,"Kansas, United States Of America",39.83000183,-100.52999878,810.0,226.0,329836.52807937,0.54,0.6260387811634349,0.4832914940580042,1.6493302752214392
KOIC,Norwich,"New York, United States Of America",42.56999969,-75.51999664,311.0,197.0,9102.81374922696,0.20733333333333337,0.5457063711911357,0.985739901764005,1.7387796062884742
KOEO,Osceola,"Wisconsin, United States Of America",45.31999969,-92.69999695,269.0,0.0,194602.764135524,0.17933333333333334,0.0,0.695143215052116,0.8744765483854493
KOEL,Oakley,"Kansas, United States Of America",39.11999893,-100.81999969,924.0,228.0,289163.34775723,0.616,0.631578947368421,0.5470084460843277,1.7945873934527485
KOEB,Coldwater,"Michigan, United States Of America",41.91999817,-85.05000305,291.0,163.0,417290.756099228,0.19399999999999995,0.4515235457063712,0.34628925309463343,0.9918127988010046
KOCQ,Oconto,"Wisconsin, United States Of America",44.86999893,-87.91999817,181.0,0.0,172842.484767223,0.1206666666666667,0.0,0.7292319847428084,0.8498986514094751
KO22,Columbia,"California, United States Of America",38.02999878,-120.41999817,637.0,236.0,0.0,0.42466666666666664,0.6537396121883656,1.0,2.078406278855032
KNFG,Camp Pendleton,"California, United States Of America",33.29999924,-117.34999847,21.0,236.0,0.0,0.014000000000000012,0.6537396121883656,1.0,1.6677396121883656
KN38,Wellsboro,"Pennsylvania, United States Of America",41.72999954,-77.40000153,576.0,165.0,0.0,0.384,0.45706371191135736,1.0,1.8410637119113573
KN03,Cortland,"New York, United States Of America",42.59999847,-76.22000122,361.0,174.0,1500.34588838193,0.2406666666666667,0.481994459833795,0.9976496190798022,1.7203107455802638
KMZJ,,,32.52000046,-111.31999969,574.0,151.0,6918.55237747329,0.3826666666666667,0.4182825484764543,0.9891616768977587,1.7901108920408797
KMZH,Moose Lake,"Minnesota, United States Of America",46.41999817,-92.80000305,331.0,0.0,103082.881866731,0.22066666666666668,0.0,0.8385145448028221,1.0591812114694887
KMYJ,Mexico,"Missouri, United States Of America",39.15000153,-91.81999969,249.0,167.0,193401.297332719,0.16600000000000004,0.4626038781163435,0.6970253841382121,1.3256292622545556
KMXO,Monticello Muni,"Iowa, United States Of America",42.22000122,-91.16999817,251.0,155.0,461233.435817533,0.16733333333333333,0.4293628808864266,0.2774504361311306,0.8741466503508906
KMWM,Windom Muni Airp,"Minnesota, United States Of America",43.90000153,-95.09999847,427.0,0.0,433927.900251495,0.2846666666666666,0.0,0.3202261789162911,0.6048928455829577
KMWK,Mount Airy/Surry,"North Carolina, United States Of America",36.47000122,-80.55000305,374.0,178.0,1948.47219801481,0.2493333333333333,0.4930747922437673,0.9969476026073635,1.739355728184464
KMVE,Montevideo,"Minnesota, United States Of America",44.97000122,-95.72000122,319.0,173.0,380512.752884437,0.21266666666666667,0.4792243767313019,0.40390417889833846,1.095795222296307
KMUT,Muscatine,"Iowa, United States Of America",41.36999893,-91.15000153,166.0,131.0,420354.980858785,0.11066666666666669,0.3628808864265928,0.341488963064294,0.8150365161575535
KMTN,Baltimore/Martin,"Maryland, United States Of America",39.31999969,-76.41999817,2.0,146.0,76297.6064161652,0.0013333333333332975,0.40443213296398894,0.8804752692256071,1.2862407355229295
KMRT,Marysville,"Ohio, United States Of America",40.22000122,-83.34999847,302.0,134.0,258192.050970032,0.20133333333333336,0.37119113573407203,0.5955268214843632,1.1680512905517686
KMRN,Morganton/Lenoir,"North Carolina, United States Of America",35.81999969,-81.62000275,375.0,192.0,4600.51147207445,0.25,0.5318559556786704,0.992793025614396,1.7746489812930664
KMPZ,Mt Pleasant,"Iowa, United States Of America",40.95000076,-91.51999664,222.0,147.0,378693.810204907,0.14800000000000002,0.407202216066482,0.4067536606091935,0.9619558766756755
KMOX,Morris Muni,"Minnesota, United States Of America",45.56999969,-95.97000122,346.0,0.0,359865.11945154,0.2306666666666667,0.0,0.4362499226656356,0.6669165893323024
KMOP,Mount Pleasant,"Michigan, United States Of America",43.61999893,-84.73000336,229.0,136.0,339742.762401725,0.15266666666666662,0.3767313019390582,0.4677727897894956,0.9971707583952205
KMNI,Manning,"South Carolina, United States Of America",33.58000183,-80.22000122,29.0,175.0,238186.203170126,0.019333333333333313,0.48476454293628807,0.6268671699502703,1.1309650462198917
KMKS,Berkeley Moncks,"South Carolina, United States Of America",33.18000031,-80.02999878,22.0,171.0,279810.391508451,0.014666666666666717,0.47368421052631576,0.5616604073985837,1.0500112845915661
KMKJ,Marion / Wythevi,"Virginia, United States Of America",36.88000107,-81.33000183,777.0,216.0,0.0,0.518,0.5983379501385041,1.0,2.116337950138504
KMKG,Muskegon,"Michigan, United States Of America",43.16999817,-86.23000336,190.0,162.0,378856.012747749,0.1266666666666667,0.4487534626038781,0.40649956069473003,0.9819196899652748
KMJQ,Jackson Muni,"Minnesota, United States Of America",43.63000107,-94.98000336,439.0,115.0,453594.173753157,0.29266666666666663,0.3185595567867036,0.2894177937514886,0.9006440172048589
KMHL,Marshall,"Missouri, United States Of America",39.09999847,-93.19999695,236.0,160.0,264269.960416481,0.15733333333333333,0.44321329639889195,0.5860054154484323,1.1865520451806577
KMGN,Harbor Springs,"Michigan, United States Of America",45.43000031,-84.91999817,205.0,0.0,148036.368362862,0.13666666666666671,0.0,0.7680922390031741,0.9047589056698409
KMFV,Melfa/Accomack,"Virginia, United States Of America",37.63000107,-75.76999664,13.0,151.0,206446.001062634,0.008666666666666711,0.4182825484764543,0.6765900811898424,1.1035392963329635
KMDZ,Medford,"Wisconsin, United States Of America",45.09999847,-90.30000305,446.0,0.0,141176.261926799,0.29733333333333334,0.0,0.7788390030678511,1.0761723364011844
KMCJ,Houston/Univ,"Texas, United States Of America",29.71999931,-95.40000153,70.0,115.0,316865.93884966,0.046666666666666634,0.3185595567867036,0.5036106922411056,0.8688369156944757
KMBY,Moberly,"Missouri, United States Of America",39.47000122,-92.43000031,263.0,151.0,250145.280112788,0.17533333333333334,0.4182825484764543,0.6081325658254013,1.201748447635189
KMBO,Madison,"Mississippi, United States Of America",32.43000031,-90.09999847,98.0,168.0,336257.882718911,0.06533333333333335,0.46537396121883656,0.4732320607343472,1.003939355286517
KMAW,Malden,"Missouri, United States Of America",36.59999847,-90.0,88.0,162.0,98883.6415344108,0.058666666666666645,0.4487534626038781,0.8450929041217221,1.3525130333922668
KMAO,Marion,"South Carolina, United States Of America",34.18000031,-79.33000183,27.0,178.0,241248.779127197,0.018000000000000016,0.4930747922437673,0.6220694628669261,1.1331442551106934
KMAN,Nampa,"Idaho, United States Of America",43.58000183,-116.51999664,773.0,224.0,18182.7355087379,0.5153333333333333,0.6204986149584487,0.9715156651891581,2.10734761348094
KM40,Aberdeen/Amory,"Mississippi, United States Of America",33.86999893,-88.48000336,68.0,184.0,154917.403476347,0.04533333333333334,0.5096952908587258,0.7573126889226335,1.3123413131146926
KM21,Greenville,"Kentucky, United States Of America",37.22000122,-87.15000153,127.0,180.0,171407.014583467,0.08466666666666667,0.4986149584487535,0.7314807340195845,1.3147623591350046
KLYV,Luverne,"Minnesota, United States Of America",43.61999893,-96.22000122,435.0,0.0,513937.330483664,0.29000000000000004,0.0,0.19488665573714162,0.4848866557371416
KLWA,South Haven,"Michigan, United States Of America",42.34999847,-86.25,199.0,152.0,466658.863977537,0.1326666666666667,0.42105263157894735,0.2689511807728013,0.8226704790184154
KLVL,Lawrenceville,"Virginia, United States Of America",36.77999878,-77.80000305,98.0,175.0,111986.259035284,0.06533333333333335,0.48476454293628807,0.8245668758124,1.3746647520820212
KLUM,Menomonie Muni,"Wisconsin, United States Of America",44.90000153,-91.87000275,271.0,0.0,186268.734201286,0.18066666666666664,0.0,0.7081989677938492,0.8888656344605158
KLRY,Harrisonville,"Missouri, United States Of America",38.61999893,-94.34999847,272.0,173.0,272850.93683162,0.18133333333333335,0.4792243767313019,0.5725628063814249,1.2331205164460601
KLRU,Las Cruces Intl,"New Mexico, United States Of America",32.27999878,-106.91999817,1355.0,238.0,3823.2093107137,0.9033333333333333,0.6592797783933518,0.994010715604043,2.556623827330728
KLRO,Mount Pleasant,"South Carolina, United States Of America",32.90000153,-79.77999878,3.0,150.0,317591.208441722,0.0020000000000000018,0.4155124653739612,0.5024745143608031,0.9199869797347644
KLRJ,Le Mars,"Iowa, United States Of America",42.77000046,-96.19999695,363.0,134.0,561037.175211285,0.242,0.37119113573407203,0.12110195232353806,0.7342930880576101
KLQK,Pickens,"South Carolina, United States Of America",34.81999969,-82.69999695,291.0,215.0,11705.0390887554,0.19399999999999995,0.5955678670360111,0.9816633612572829,1.7712312282932938
KLNP,Wise/Lonesome Pi,"Virginia, United States Of America",36.97999954,-82.51999664,817.0,180.0,836.715374894324,0.5446666666666666,0.4986149584487535,0.9986892356835738,2.041970860798994
KLNL,Land O Lakes,"Wisconsin, United States Of America",46.15000153,-89.22000122,517.0,0.0,71780.0651934912,0.3446666666666667,0.0,0.8875522657890005,1.2322189324556672
KLLJ,Challis,"Idaho, United States Of America",44.52000046,-114.22000122,1535.0,0.0,0.0,1.0,0.0,1.0,2.0
KLKR,Lancaster,"South Carolina, United States Of America",34.72000122,-80.84999847,166.0,201.0,105023.859663356,0.11066666666666669,0.556786703601108,0.8354738878349578,1.5029272581027326
KLJF,Litchfield,"Minnesota, United States Of America",45.09999847,-94.51999664,347.0,0.0,301152.130403859,0.23133333333333328,0.0,0.5282273062103586,0.7595606395436919
KLIC,Limon,"Colorado, United States Of America",39.27000046,-103.66999817,1635.0,219.0,55520.5168127977,1.0,0.6066481994459834,0.9130238137706661,2.5196720132166495
KLHZ,Louisburg/Frankl,"North Carolina, United States Of America",36.02000046,-78.33000183,104.0,178.0,140356.874481762,0.06933333333333336,0.4930747922437673,0.7801226221532752,1.3425307477303758
KLDM,Ludington/Mason,"Michigan, United States Of America",43.97000122,-86.40000153,194.0,185.0,289879.747459017,0.1293333333333333,0.5124653739612188,0.5458861634138087,1.187684870708361
KLDJ,Linden,"New Jersey, United States Of America",40.61999893,-74.25,6.0,141.0,38094.7800905804,0.0040000000000000036,0.39058171745152354,0.9403222650341019,1.3349039824856255
KLBO,Lebanon,"Missouri, United States Of America",37.65000153,-92.65000153,399.0,167.0,157224.036342118,0.266,0.4626038781163435,0.7536992115774486,1.482303089693792
KL52,Oceano,"California, United States Of America",35.09999847,-120.62000275,3.0,361.0,712.392794302204,0.0020000000000000018,1.0,0.998883994387974,2.000883994387974
KL18,Fallbrook,"California, United States Of America",33.34999847,-117.25,215.0,298.0,0.0,0.1433333333333333,0.8254847645429363,1.0,1.9688180978762695
KL08,Borrego Springs,"California, United States Of America",33.27000046,-116.31999969,156.0,214.0,1546.02959125528,0.10399999999999998,0.592797783933518,0.9975780528466897,1.6943758367802078
KKY8,Lewisport,"Kentucky, United States Of America",37.95000076,-86.87000275,124.0,160.0,195468.759327726,0.08266666666666667,0.44321329639889195,0.6937865821633294,1.219666545228888
KJZI,Charleston/Exec,"South Carolina, United States Of America",32.70000076,-80.0,5.0,153.0,319786.859472748,0.0033333333333332993,0.42382271468144045,0.49903489664951545,0.9261909446642892
KJYO,Leesburg/Godfrey,"Virginia, United States Of America",39.06999969,-77.56999969,112.0,182.0,12528.0193903169,0.07466666666666666,0.5041551246537396,0.9803741137487801,1.5591959050691864
KJYM,Hillsdale,"Michigan, United States Of America",41.91999817,-84.58000183,357.0,158.0,378691.915554478,0.238,0.4376731301939058,0.40675662869158913,1.082429758885495
KJXI,Gilmer Muni,"Texas, United States Of America",32.70000076,-94.94999695,130.0,151.0,174954.896642594,0.08666666666666667,0.4182825484764543,0.7259227661113461,1.230871981254467
KJVW,Raymond,"Mississippi, United States Of America",32.29999924,-90.41999817,73.0,167.0,338942.990974098,0.048666666666666636,0.4626038781163435,0.46902567921890653,0.9802962240019166
KJSO,Jacksonville,"Texas, United States Of America",31.87000084,-95.22000122,204.0,152.0,266961.465302735,0.136,0.42105263157894735,0.5817890132306124,1.1388416448095597
KJNX,Smithfield Johns,"North Carolina, United States Of America",35.52999878,-78.37999725,41.0,158.0,175692.338467319,0.02733333333333332,0.4376731301939058,0.7247675197058263,1.1897739832330654
KJMR,Mora,"Minnesota, United States Of America",45.88000107,-93.26999664,301.0,0.0,171450.152214439,0.20066666666666666,0.0,0.7314131563592835,0.9320798230259502
KJKJ,Moorhead Muni,"Minnesota, United States Of America",46.83000183,-96.66999817,280.0,0.0,370984.054031828,0.18666666666666665,0.0,0.41883145143656386,0.6054981181032305
KJHN,Johnson,"Kansas, United States Of America",37.58000183,-101.73000336,1013.0,231.0,133479.143467492,0.6753333333333333,0.6398891966759003,0.7908969961662082,2.106119526175442
KJGG,Williamsburg,"Virginia, United States Of America",37.22999954,-76.72000122,13.0,166.0,158628.247250942,0.008666666666666711,0.4598337950138504,0.7514994318109356,1.2199998934914527
KJFZ,Richlands,"Virginia, United States Of America",37.06999969,-81.80000305,809.0,178.0,0.0,0.5393333333333333,0.4930747922437673,1.0,2.032408125577101
KJFX,Jasper/Walker,"Alabama, United States Of America",33.90000153,-87.31999969,144.0,198.0,47996.7630477386,0.09599999999999997,0.5484764542936288,0.9248102207816074,1.5692866750752361
KJAQ,Jackson,"California, United States Of America",38.36999893,-120.80000305,518.0,234.0,1211.26049736838,0.3453333333333334,0.6481994459833795,0.99810248850985,1.9916352678265627
KIXA,Halifax Northamp,"North Carolina, United States Of America",36.33000183,-77.62999725,43.0,161.0,160441.742454451,0.028666666666666618,0.44598337950138506,0.7486584838947222,1.223308530062774
KIUA,,,42.91999817,-77.33000183,248.0,187.0,8509.9238496246,0.16533333333333333,0.518005540166205,0.9866686989957596,1.6700075724952979
KISQ,Manistique,"Michigan, United States Of America",45.97000122,-86.16999817,206.0,0.0,116939.780007443,0.1373333333333333,0.0,0.8168068910842662,0.9541402244175995
KIRS,Sturgis/Kirsch,"Michigan, United States Of America",41.79999924,-85.43000031,282.0,145.0,449910.534638141,0.18799999999999994,0.40166204986149584,0.29518843314862475,0.8848504830101205
KIRK,Kirksville,"Missouri, United States Of America",40.09999847,-92.55000305,292.0,163.0,315638.73577486,0.19466666666666665,0.4515235457063712,0.5055331787254246,1.1517233910984626
KIPJ,Lincolnton,"North Carolina, United States Of America",35.47999954,-81.16999817,266.0,182.0,29722.693297683,0.17733333333333334,0.5041551246537396,0.9534376361046272,1.6349260940917
KINF,Inverness,"Florida, United States Of America",28.79999924,-82.31999969,14.0,150.0,589771.44682458,0.009333333333333305,0.4155124653739612,0.07608800968627993,0.5009338083935744
KIMS,Madison,"Indiana, United States Of America",38.75,-85.47000122,244.0,173.0,215838.021588519,0.16266666666666663,0.4792243767313019,0.66187692336598,1.3037679667639486
KIKW,Midland Barstow,"Michigan, United States Of America",43.66999817,-84.26999664,190.0,146.0,315440.870019224,0.1266666666666667,0.40443213296398894,0.5058431471803047,1.0369419468109604
KIKV,Ankeny,"Iowa, United States Of America",41.68000031,-93.56999969,270.0,142.0,510810.232560167,0.18000000000000005,0.39335180055401664,0.19978544031201337,0.7731372408660301
KIIB,Independence,"Iowa, United States Of America",42.45000076,-91.94999695,294.0,122.0,445693.138324421,0.19599999999999995,0.3379501385041551,0.3017952348904353,0.8357453733945903
KIFA,Iowa Falls Muni,"Iowa, United States Of America",42.47000122,-93.26999664,344.0,155.0,478537.824052154,0.22933333333333328,0.4293628808864266,0.2503420844788245,0.9090382986985843
KIDI,Indiana/Stewart,"Pennsylvania, United States Of America",40.63000107,-79.09999847,425.0,174.0,7706.8267109405,0.2833333333333333,0.481994459833795,0.9879267983490123,1.7532545915161406
KICL,Clarinda,"Iowa, United States Of America",40.72000122,-95.01999664,299.0,157.0,499402.291719505,0.19933333333333336,0.43490304709141275,0.2176566570082875,0.8518930374330337
KI75,Osceola Muni,"Iowa, United States Of America",41.04999924,-93.68000031,336.0,158.0,454907.545974066,0.22399999999999998,0.4376731301939058,0.2873603181833238,0.9490334483772296
KI69,Batavia,"Ohio, United States Of America",39.08000183,-84.22000122,238.0,137.0,201931.424225186,0.15866666666666662,0.37950138504155123,0.6836624338677628,1.2218304855759807
KI68,Lebanon,"Ohio, United States Of America",39.47000122,-84.25,274.0,143.0,233510.423225292,0.18266666666666664,0.3961218836565097,0.6341920568676688,1.212980607190845
KI67,Harrison,"Ohio, United States Of America",39.25,-84.77999878,177.0,187.0,248974.095277745,0.118,0.518005540166205,0.6099672964109456,1.2459728365771507
KI43,Jackson,"Ohio, United States Of America",38.97999954,-82.58000183,221.0,211.0,109540.44582371,0.14733333333333332,0.5844875346260388,0.8283983874333974,1.5602192553927696
KI23,Washington Court,"Ohio, United States Of America",39.56999969,-83.41999817,298.0,160.0,202557.929228973,0.19866666666666666,0.44321329639889195,0.6826809765793389,1.3245609396448974
KHZX,Mcgregor/Iverson,"Minnesota, United States Of America",46.61999893,-93.31999969,374.0,0.0,125183.906346132,0.2493333333333333,0.0,0.8038919776631669,1.0532253109965002
KHZL,Hazleton,"Pennsylvania, United States Of America",40.97999954,-76.0,481.0,167.0,2056.22120466582,0.32066666666666666,0.4626038781163435,0.9967788073906312,1.7800493521736414
KHZE,Hazen,"North Dakota, United States Of America",47.27999878,-101.58000183,542.0,194.0,91903.5914136559,0.3613333333333333,0.5373961218836565,0.8560275670903658,1.7547570223073556
KHYX,Saginaw/Browne,"Michigan, United States Of America",43.43000031,-83.87000275,181.0,128.0,295561.545831866,0.1206666666666667,0.3545706371191136,0.536985288894562,1.0122225926803423
KHYW,Conway-Horry Cty,"South Carolina, United States Of America",33.83000183,-79.12000275,10.0,185.0,283675.435048443,0.00666666666666671,0.5124653739612188,0.5556055871984711,1.0747376278263565
KHWY,Warrenton,"Virginia, United States Of America",38.58000183,-77.72000122,93.0,190.0,18942.4357897883,0.062000000000000055,0.5263157894736842,0.9703255495901641,1.5586413390638483
KHVS,Hartsville,"South Carolina, United States Of America",34.40000153,-80.12000275,110.0,192.0,177306.575424677,0.07333333333333336,0.5318559556786704,0.7222387216635668,1.3274280106755705
KHRJ,Erwin/Harnett Co,"North Carolina, United States Of America",35.38000107,-78.73000336,55.0,173.0,165373.403680493,0.036666666666666625,0.4792243767313019,0.7409327437568469,1.2568237871548154
KHON,Huron,"South Dakota, United States Of America",44.38000107,-98.23000336,391.0,174.0,393551.860631083,0.2606666666666667,0.481994459833795,0.3834776423900324,1.126138768890494
KHNR,Harlan Muni,"Iowa, United States Of America",41.58000183,-95.33000183,364.0,154.0,585716.544399587,0.2426666666666667,0.4265927977839335,0.08244025510299899,0.7516997195535993
KHLX,Hillsville/Galax,"Virginia, United States Of America",36.77000046,-80.81999969,819.0,202.0,2655.44491148566,0.546,0.5595567867036011,0.995840087873788,2.101396874577389
KHFY,Indianapolis,"Indiana, United States Of America",39.63000107,-86.08000183,250.0,147.0,322318.475446022,0.16666666666666663,0.407202216066482,0.4950689699076037,1.0689378526407523
KHEG,,,30.28000069,-81.80000305,25.0,0.0,484674.215587726,0.01666666666666672,0.0,0.24072906277779113,0.2573957294444579
KHCO,Hallock,"Minnesota, United States Of America",48.75,-96.93000031,250.0,0.0,257682.532139732,0.16666666666666663,0.0,0.596325012985731,0.7629916796523977
KHCD,Hutchinson,"Minnesota, United States Of America",44.86999893,-94.37999725,320.0,0.0,313255.662732501,0.21333333333333337,0.0,0.5092664041460235,0.7225997374793569
KHBI,Asheboro Muni,"North Carolina, United States Of America",35.65000153,-79.90000153,199.0,175.0,80341.6675222716,0.1326666666666667,0.48476454293628807,0.8741400073786489,1.4915712169816038
KHAI,Three Rivers,"Michigan, United States Of America",41.97000122,-85.59999847,250.0,137.0,462016.491528805,0.16666666666666663,0.37950138504155123,0.27622373286391894,0.8223917845721369
KHAF,Half Moon Bay,"California, United States Of America",37.52000046,-122.5,11.0,286.0,0.0,0.007333333333333303,0.7922437673130194,1.0,1.7995771006463528
KHAE,Hannibal,"Missouri, United States Of America",39.72999954,-91.44999695,230.0,149.0,244606.470389984,0.15333333333333332,0.41274238227146814,0.6168094401341145,1.1828851557389162
KGZL,Stigler,"Oklahoma, United States Of America",35.27999878,-95.09999847,176.0,163.0,16965.6433589356,0.11733333333333329,0.4515235457063712,0.9734223123091118,1.5422791913488163
KGYL,Glencoe,"Minnesota, United States Of America",44.77000046,-94.08000183,304.0,0.0,308152.308738377,0.20266666666666666,0.0,0.5172611111997019,0.7199277778663685
KGWW,Goldsboro/Wayne,"North Carolina, United States Of America",35.47000122,-77.97000122,40.0,176.0,204667.158040496,0.026666666666666616,0.48753462603878117,0.6793767444063953,1.193578037111843
KGWR,Gwinner,"North Dakota, United States Of America",46.22000122,-97.65000153,381.0,0.0,371612.095011146,0.254,0.0,0.417847587951269,0.671847587951269
KGPI,Kalispell,"Montana, United States Of America",48.31999969,-114.25,903.0,0.0,1931.67049373319,0.602,0.0,0.9969739234747557,1.5989739234747558
KGPH,Mosby,"Missouri, United States Of America",39.33000183,-94.31999969,233.0,175.0,347610.486202896,0.15533333333333332,0.48476454293628807,0.45544753329307414,1.0955454095626955
KGNT,Grants,"New Mexico, United States Of America",35.16999817,-107.90000153,1988.0,278.0,0.0,1.0,0.7700831024930748,1.0,2.770083102493075
KGLY,Clinton,"Missouri, United States Of America",38.34999847,-93.68000031,247.0,172.0,230028.321169317,0.16466666666666663,0.47645429362880887,0.6396469764951499,1.2807679367906255
KGHW,Glenwood,"Minnesota, United States Of America",45.63000107,-95.31999969,423.0,0.0,312695.567935976,0.28200000000000003,0.0,0.5101438259015322,0.7921438259015322
KGGI,Grinnell Reg,"Iowa, United States Of America",41.72000122,-92.73000336,305.0,144.0,487018.514614188,0.20333333333333337,0.3988919667590028,0.2370565791553799,0.839281879247716
KGGE,Georgetown,"South Carolina, United States Of America",33.31999969,-79.31999969,9.0,173.0,312199.136016228,0.006000000000000005,0.4792243767313019,0.5109215159804588,0.9961458927117607
KGEV,Jefferson,"North Carolina, United States Of America",36.43000031,-81.41999817,961.0,189.0,0.0,0.6406666666666667,0.5235457063711911,1.0,2.164212373037858
KGDB,Granite Falls,"Minnesota, United States Of America",44.75,-95.55000305,316.0,0.0,386265.122508616,0.21066666666666667,0.0,0.3948927503235736,0.6055594169902403
KGAF,Grafton,"North Dakota, United States Of America",48.40000153,-97.37000275,250.0,0.0,240853.247547278,0.16666666666666663,0.0,0.6226890865723504,0.7893557532390171
KFYG,Washington,"Missouri, United States Of America",38.58000183,-91.0,147.0,162.0,112113.726268379,0.09799999999999998,0.4487534626038781,0.8243671908231339,1.371120653427012
KFXY,Forest City,"Iowa, United States Of America",43.22999954,-93.62000275,366.0,158.0,417896.284888308,0.244,0.4376731301939058,0.3453406562920528,1.0270137864859588
KFWB,Branson West,"Missouri, United States Of America",36.70000076,-93.40000153,392.0,170.0,45331.4002785001,0.2613333333333333,0.4709141274238227,0.9289856698208819,1.661233130578038
KFVX,Farmville,"Virginia, United States Of America",37.34999847,-78.43000031,129.0,194.0,28500.1562720681,0.08599999999999997,0.5373961218836565,0.9553528129458418,1.5787489348294983
KFSW,Fort Madison,"Iowa, United States Of America",40.66999817,-91.31999969,219.0,139.0,345028.489152856,0.14600000000000002,0.3850415512465374,0.4594923849832174,0.9905339362297547
KFSO,Highgate,"Vermont, United States Of America",44.93000031,-73.09999847,70.0,152.0,5769.13609764414,0.046666666666666634,0.42105263157894735,0.9909623057490091,1.458681603994623
KFRR,Fort Royal,"Virginia, United States Of America",38.91999817,-78.25,213.0,180.0,0.0,0.14200000000000002,0.4986149584487535,1.0,1.6406149584487535
KFRH,French Lick,"Indiana, United States Of America",38.5,-86.62999725,241.0,136.0,226497.127870898,0.16066666666666662,0.3767313019390582,0.6451788004688106,1.1825767690745355
KFQD,Rutherfordton,"North Carolina, United States Of America",35.41999817,-81.93000031,325.0,184.0,2700.89588892498,0.21666666666666667,0.5096952908587258,0.9957688862188864,1.7221308437442788
KFPK,Charlotte,"Michigan, United States Of America",42.56999969,-84.81999969,269.0,173.0,398316.000991857,0.17933333333333334,0.4792243767313019,0.3760143336344869,1.0345720436991221
KFKS,Frankfort,"Michigan, United States Of America",44.63000107,-86.19999695,189.0,0.0,229263.519212869,0.126,0.0,0.6408450841715765,0.7668450841715765
KFKN,Franklin/J B Ros,"Virginia, United States Of America",36.70000076,-76.90000153,9.0,185.0,179130.129057059,0.006000000000000005,0.5124653739612188,0.7193820166212845,1.2378473905825034
KFKA,Preston,"Minnesota, United States Of America",43.68000031,-92.16999817,388.0,0.0,319545.841410681,0.2586666666666667,0.0,0.4994124657546744,0.7580791324213412
KFGN,Flag Island,"Minnesota, United States Of America",49.31999969,-94.90000153,327.0,0.0,340964.163352084,0.21799999999999997,0.0,0.4658593926776261,0.6838593926776261
KFFX,Fremont,"Michigan, United States Of America",43.43000031,-86.0,234.0,0.0,357438.626260776,0.15600000000000003,0.0,0.44005116832686925,0.5960511683268692
KFFM,Fergus Falls,"Minnesota, United States Of America",46.27999878,-96.15000153,362.0,0.0,342934.702926769,0.2413333333333333,0.0,0.462772425429141,0.7041057587624743
KFFL,Fairfield,"Iowa, United States Of America",41.04999924,-91.97000122,240.0,149.0,397424.147496358,0.16000000000000003,0.41274238227146814,0.3774114750907768,0.950153857362245
KFFA,Kill Devil Hills,"North Carolina, United States Of America",36.02000046,-75.66999817,2.0,111.0,310654.099663278,0.0013333333333332975,0.3074792243767313,0.5133419071669886,0.8221544648770531
KFBL,Faribault Muni,"Minnesota, United States Of America",44.33000183,-93.31999969,318.0,0.0,305553.715822942,0.21199999999999997,0.0,0.5213319612983992,0.7333319612983992
KEZS,Shawano Muni,"Wisconsin, United States Of America",44.77999878,-88.56999969,247.0,0.0,194160.582953866,0.16466666666666663,0.0,0.6958359181285781,0.8605025847952448
KEZF,Fredericksb/Shan,"Virginia, United States Of America",38.27000046,-77.44999695,26.0,183.0,59879.0357667286,0.01733333333333331,0.5069252077562327,0.9061959350335254,1.4304544761230913
KEYF,Elizabethtown,"North Carolina, United States Of America",34.59999847,-78.58000183,39.0,180.0,239160.315800444,0.026000000000000023,0.4986149584487535,0.6253411646749851,1.1499561231237387
KEVU,Maryville,"Missouri, United States Of America",40.34999847,-94.91999817,351.0,158.0,465868.733460732,0.23399999999999999,0.4376731301939058,0.2701889671429612,0.941862097336867
KEVM,Eveleth Muni,"Minnesota, United States Of America",47.41999817,-92.5,419.0,0.0,67930.487321203,0.2793333333333333,0.0,0.8935828581023502,1.1729161914356836
KETB,West Bend,"Wisconsin, United States Of America",43.41999817,-88.12999725,269.0,0.0,335388.28003647,0.17933333333333334,0.0,0.47459434497079517,0.6539276783041286
KERY,Newberry,"Michigan, United States Of America",46.29999924,-85.44999695,261.0,0.0,93298.4469234328,0.17400000000000004,0.0,0.8538424431119557,1.0278424431119557
KEOK,Keokuk Muni,"Iowa, United States Of America",40.47000122,-91.41999817,206.0,141.0,324728.511305285,0.1373333333333333,0.39058171745152354,0.49129350563335344,1.0192085564182103
KELO,Ely Muni,"Minnesota, United States Of America",47.81999969,-91.83000183,438.0,0.0,62161.6153711304,0.29200000000000004,0.0,0.902620138550486,1.194620138550486
KEKX,Elizabeth,"Kentucky, United States Of America",37.71666718,-85.8666687,,182.0,117537.750644669,0.0,0.5041551246537396,0.8158701345753452,1.3200252592290846
KEGV,Eagle River,"Wisconsin, United States Of America",45.93000031,-89.26999664,499.0,0.0,89451.9705470235,0.33266666666666667,0.0,0.8598681767478535,1.1925348434145202
KEFT,Monroe,"Wisconsin, United States Of America",42.61999893,-89.59999847,332.0,0.0,422947.325553596,0.22133333333333338,0.0,0.3374279011742048,0.5587612345075381
KEFK,Newport State,"Vermont, United States Of America",44.88000107,-72.23000336,282.0,54.0,0.0,0.18799999999999994,0.14958448753462603,1.0,1.337584487534626
KEDJ,Bellefontaine,"Ohio, United States Of America",40.36999893,-83.81999969,341.0,119.0,294955.00683152,0.2273333333333334,0.3296398891966759,0.5379354682530741,1.0949086907830834
KEDE,Edenton,"North Carolina, United States Of America",36.02999878,-76.56999969,4.0,153.0,247086.172300028,0.002666666666666706,0.42382271468144045,0.6129248398547541,1.0394142212028612
KEBS,Webster City,"Iowa, United States Of America",42.43000031,-93.87000275,340.0,128.0,504800.87181468,0.22666666666666668,0.3545706371191136,0.2091994607376706,0.7904367645234509
KEAT,Wenatchee,"Washington, United States Of America",47.40000153,-120.19999695,375.0,192.0,0.0,0.25,0.5318559556786704,1.0,1.7818559556786704
KDYT,Duluth (Sky Harb,"Minnesota, United States Of America",46.72000122,-92.02999878,185.0,0.0,39738.4857423278,0.1233333333333333,0.0,0.9377473025323184,1.0610806358656517
KDYB,Summerville,"South Carolina, United States Of America",33.06999969,-80.27999878,15.0,188.0,272283.720812391,0.010000000000000009,0.5207756232686981,0.5734513839551364,1.1042270072238345
KDYA,Demopolis,"Alabama, United States Of America",32.47000122,-87.94999695,33.0,158.0,155919.396167304,0.02200000000000002,0.4376731301939058,0.7557430078769228,1.2154161380708286
KDXX,Madison,"Minnesota, United States Of America",44.97999954,-96.18000031,327.0,145.0,408698.829775934,0.21799999999999997,0.40166204986149584,0.3597490158429384,0.9794110657044341
KDUH,Lambertville,"Michigan, United States Of America",41.72999954,-83.65000153,203.0,152.0,305317.984653835,0.1353333333333333,0.42105263157894735,0.5217012481718164,1.078087213084097
KDTL,Detroit Lakes,"Minnesota, United States Of America",46.81999969,-95.87999725,425.0,0.0,311280.83151783,0.2833333333333333,0.0,0.5123600945033714,0.7956934278367047
KDRM,Drummond Is,"Michigan, United States Of America",46.0,-83.75,201.0,0.0,65367.7814465695,0.134,0.0,0.8975974890207669,1.0315974890207669
KDNS,Denison,"Iowa, United States Of America",41.97999954,-95.37000275,382.0,145.0,613772.846137121,0.2546666666666667,0.40166204986149584,0.03848839253194211,0.6948171090601047
KDNA,Santa Teresa,"New Mexico, United States Of America",31.87999916,-106.69999695,1254.0,216.0,8063.33654423692,0.836,0.5983379501385041,0.9873683045266668,2.421706254665171
KDLL,Dells/Baraboo,"Wisconsin, United States Of America",43.52000046,-89.76999664,297.0,74.0,321988.68284549,0.19799999999999995,0.20498614958448755,0.49558560959843445,0.898571759182922
KDLH,Duluth,"Minnesota, United States Of America",46.84999847,-92.19999695,434.0,0.0,37430.8657025668,0.28933333333333333,0.0,0.941362326344174,1.2306956596775074
KDEH,Decorah,"Iowa, United States Of America",43.27000046,-91.73000336,348.0,32.0,352689.005447547,0.23199999999999998,0.0886426592797784,0.4474917313490583,0.7681343906288367
KD95,Lapeer,"Michigan, United States Of America",43.06999969,-83.26999664,253.0,153.0,274555.470479614,0.16866666666666663,0.42382271468144045,0.5698925532117369,1.162381934559844
KD60,Tioga,"North Dakota, United States Of America",48.38000107,-102.90000153,682.0,0.0,89755.3782290698,0.45466666666666666,0.0,0.8593928705984881,1.314059537265155
KD57,Glen Ullin,"North Dakota, United States Of America",46.81999969,-101.87000275,636.0,214.0,96098.087575175,0.42400000000000004,0.592797783933518,0.8494566397967204,1.8662544237302385
KD55,Langdon/Robertsn,"North Dakota, United States Of America",48.75,-98.40000153,488.0,0.0,158570.622134759,0.32533333333333336,0.0,0.7515897049770431,1.0769230383103765
KD50,Crosby,"North Dakota, United States Of America",48.93000031,-103.30000305,591.0,0.0,153614.505846432,0.394,0.0,0.7593537554220563,1.1533537554220563
KD39,Sauk Centre,"Minnesota, United States Of America",45.70000076,-94.93000031,378.0,0.0,282892.510301867,0.252,0.0,0.5568320853017101,0.8088320853017101
KD25,Manitowish Water,"Wisconsin, United States Of America",46.11999893,-89.87999725,490.0,0.0,54858.3265636953,0.32666666666666666,0.0,0.9140611741147598,1.2407278407814264
KCXE,Chase City,"Virginia, United States Of America",36.77999878,-78.5,154.0,187.0,83202.9586487013,0.10266666666666668,0.518005540166205,0.8696576249341952,1.4903298317670668
KCVX,Charlevoix,"Michigan, United States Of America",45.29999924,-85.26999664,196.0,0.0,172053.714254006,0.1306666666666667,0.0,0.7304676405865947,0.8611343072532615
KCVH,Hollister Muni,"California, United States Of America",36.90000153,-121.41999817,68.0,299.0,86.0136370582735,0.04533333333333334,0.8282548476454293,0.9998652545303158,1.8734534355090786
KCTZ,Clinton,"North Carolina, United States Of America",34.97999954,-78.37000275,43.0,164.0,218998.23646731,0.028666666666666618,0.45429362880886426,0.6569262591142546,1.1398865545897854
KCSQ,Creston,"Iowa, United States Of America",41.02000046,-94.37000275,394.0,149.0,486299.406105771,0.2626666666666667,0.41274238227146814,0.23818310533232565,0.9135921542704605
KCQW,Cheraw,"South Carolina, United States Of America",34.72000122,-79.94999695,67.0,191.0,160485.469593319,0.04466666666666663,0.5290858725761773,0.748589982735299,1.3223425219781428
KCPT,Cleburne,"Texas, United States Of America",32.34999847,-97.43000031,260.0,162.0,218523.401649286,0.17333333333333334,0.4487534626038781,0.6576701160509593,1.2797569119881707
KCPK,Chesapeake,"Virginia, United States Of America",36.66999817,-76.31999969,4.0,167.0,225506.907450881,0.002666666666666706,0.4626038781163435,0.6467300395530916,1.1120005843361018
KCPF,Hazard,"Kentucky, United States Of America",37.38000107,-83.26999664,382.0,207.0,13307.6926011293,0.2546666666666667,0.5734072022160664,0.9791527093693813,1.8072265782521144
KCPC,Whiteville,"North Carolina, United States Of America",34.27999878,-78.72000122,27.0,155.0,262629.076003269,0.018000000000000016,0.4293628808864266,0.5885759583125333,1.03593883919896
KCOQ,Cloquet,"Minnesota, United States Of America",46.70000076,-92.5,390.0,0.0,65681.2321849213,0.26,0.0,0.8971064498273722,1.1571064498273722
KCNK,Concordia,"Kansas, United States Of America",39.54999924,-97.65000153,445.0,177.0,496664.264337102,0.29666666666666663,0.4903047091412742,0.22194593947869137,1.0089173152866322
KCNC,Chariton,"Iowa, United States Of America",41.02000046,-93.37000275,319.0,147.0,438514.904682823,0.21266666666666667,0.407202216066482,0.313040364112024,0.9329092468451727
KCNB,Canby/Myers Fld,"Minnesota, United States Of America",44.72999954,-96.26999664,363.0,161.0,431068.940652933,0.242,0.44598337950138506,0.32470490888390113,1.0126882883852861
KCMR,Williams Clark,"Arizona, United States Of America",35.29999924,-112.19999695,2039.0,228.0,0.0,1.0,0.631578947368421,1.0,2.6315789473684212
KCMA,Camarillo,"California, United States Of America",34.22000122,-119.09999847,20.0,180.0,943.634399375649,0.013333333333333308,0.4986149584487535,0.9985217406831922,1.5104700324652791
KCLW,Clearwater,"Florida, United States Of America",27.97999954,-82.75,21.0,114.0,544416.678098468,0.014000000000000012,0.3157894736842105,0.14713894792613055,0.4769284216103411
KCLS,Chehalis Central,"Washington, United States Of America",46.68000031,-122.98000336,52.0,238.0,6720.6745289143,0.03466666666666662,0.6592797783933518,0.9894716642969208,1.6834181093569391
KCLI,Clintonville,"Wisconsin, United States Of America",44.61999893,-88.73000336,248.0,0.0,215316.988980986,0.16533333333333333,0.0,0.662693151883037,0.8280264852163703
KCKZ,Perkasie,"Pennsylvania, United States Of America",40.38000107,-75.27999878,160.0,168.0,39882.4898653957,0.10666666666666669,0.46537396121883656,0.9375217115229988,1.509562339408502
KCKP,Cherokee,"Iowa, United States Of America",42.72999954,-95.55000305,369.0,138.0,558184.958222525,0.246,0.38227146814404434,0.12557011959253728,0.7538415877365816
KCKN,Crookston Muni,"Minnesota, United States Of America",47.84999847,-96.62000275,272.0,0.0,314059.856511966,0.18133333333333335,0.0,0.5080065868398723,0.6893399201732057
KCKM,Clarksdale,"Mississippi, United States Of America",34.29999924,-90.51999664,52.0,161.0,187663.633298913,0.03466666666666662,0.44598337950138506,0.7060137755324837,1.1866638217005354
KCKI,Kingstree,"South Carolina, United States Of America",33.72000122,-79.84999847,19.0,195.0,247198.119286034,0.012666666666666715,0.5401662049861495,0.6127494682540988,1.1655823399069152
KCJR,Culpeper,"Virginia, United States Of America",38.52999878,-77.87000275,90.0,186.0,17504.7241471908,0.06000000000000005,0.5152354570637119,0.9725778102453067,1.5478132673090186
KCIN,Carroll,"Iowa, United States Of America",42.02999878,-94.77999878,365.0,150.0,581607.603797424,0.2433333333333333,0.4155124653739612,0.08887715453288002,0.7477229532401745
KCGE,Cambridge-Dorch,"Maryland, United States Of America",38.52999878,-76.02999878,5.0,88.0,134568.87153541,0.0033333333333332993,0.24376731301939059,0.7891898724430241,1.0362905187957479
KCGC,Crystal River,"Florida, United States Of America",28.87000084,-82.56999969,3.0,158.0,570078.477197314,0.0020000000000000018,0.4376731301939058,0.10693821591697705,0.5466113461108828
KCFS,Caro/Tuscola,"Michigan, United States Of America",43.47000122,-83.44999695,214.0,148.0,263226.179498985,0.14266666666666672,0.4099722991689751,0.5876405602322761,1.140279526067918
KCFJ,Crawfordsville,"Indiana, United States Of America",39.97999954,-86.91999817,243.0,148.0,382633.419210271,0.16200000000000003,0.4099722991689751,0.4005820291801014,0.9725543283490765
KCFE,Buffalo Muni,"Minnesota, United States Of America",45.16999817,-93.84999847,292.0,0.0,261384.013409784,0.19466666666666665,0.0,0.5905264227933172,0.7851930894599839
KCDN,Camden Woodward,"South Carolina, United States Of America",34.27999878,-80.56999969,90.0,169.0,157934.162252297,0.06000000000000005,0.46814404432132967,0.7525867571740024,1.280730801495332
KCDI,Cambridge,"Ohio, United States Of America",39.97000122,-81.58000183,241.0,172.0,137687.107329874,0.16066666666666662,0.47645429362880887,0.7843049709194893,1.4214259312149649
KCDH,Camden,"Arkansas, United States Of America",33.61999893,-92.76999664,38.0,181.0,96113.7480193602,0.02533333333333332,0.5013850415512465,0.8494321067810339,1.3761504816656136
KCDA,Lyndonville,"Vermont, United States Of America",44.56999969,-72.01999664,357.0,168.0,0.0,0.238,0.46537396121883656,1.0,1.7033739612188366
KCCY,Charles City,"Iowa, United States Of America",43.06999969,-92.62000275,340.0,0.0,396109.096151358,0.22666666666666668,0.0,0.3794715811065316,0.6061382477731982
KCCA,Clinton Muni,"Arkansas, United States Of America",35.59999847,-92.44999695,152.0,188.0,0.0,0.10133333333333339,0.5207756232686981,1.0,1.6221089566020315
KCBG,Cambridge Muni,"Minnesota, United States Of America",45.56999969,-93.26999664,285.0,0.0,198858.048462349,0.18999999999999995,0.0,0.6884770594880996,0.8784770594880995
KCBF,Council Bluffs,"Iowa, United States Of America",41.27000046,-95.76999664,379.0,158.0,587050.54301881,0.2526666666666667,0.4376731301939058,0.0803504670571415,0.770690263917714
KCAV,Clarion,"Iowa, United States Of America",42.75,-93.76999664,352.0,160.0,469809.347691626,0.2346666666666667,0.44321329639889195,0.264015760968389,0.9418957240339476
KCAO,Clayton,"New Mexico, United States Of America",36.45000076,-103.15000153,1517.0,198.0,4413.13095739754,1.0,0.5484764542936288,0.9930865683167314,2.5415630226103603
KCAD,Cadillac/Wexford,"Michigan, United States Of America",44.27000046,-85.41999817,397.0,0.0,283373.816989722,0.2646666666666667,0.0,0.5560780897966349,0.8207447564633016
KC35,Reedsburg,"Wisconsin, United States Of America",43.52999878,-89.98000336,272.0,0.0,317811.878096601,0.18133333333333335,0.0,0.5021288222437317,0.683462155577065
KC29,Middleton,"Wisconsin, United States Of America",43.11999893,-89.52999878,282.0,165.0,369680.351865067,0.18799999999999994,0.45706371191135736,0.42087377829072703,1.0659374902020844
KBYL,Williamsburg,"Kentucky, United States Of America",36.79999924,-84.19999695,355.0,205.0,3495.22350742108,0.2366666666666667,0.5678670360110804,0.994524524839716,1.7990582275174631
KBXK,Buckeye,"Arizona, United States Of America",33.41999817,-112.68000031,303.0,186.0,3198.69338542141,0.20199999999999996,0.5152354570637119,0.9949890568828995,1.7122245139466115
KBWW,Bowman,"North Dakota, United States Of America",46.16999817,-103.30000305,911.0,197.0,55981.8005069291,0.6073333333333333,0.5457063711911357,0.9123011854741646,2.065340889998634
KBWP,Wahpeton,"North Dakota, United States Of America",46.25,-96.62000275,294.0,0.0,378641.762797003,0.19599999999999995,0.0,0.4068351959640944,0.6028351959640943
KBVU,Boulder City,"Nevada, United States Of America",35.95000076,-114.87000275,654.0,176.0,0.0,0.43600000000000005,0.48753462603878117,1.0,1.9235346260387813
KBVI,Beaver Falls Arp,"Pennsylvania, United States Of America",40.77000046,-80.37000275,387.0,160.0,93627.0871696284,0.258,0.44321329639889195,0.8533276086526163,1.5545409050515082
KBTN,Britton,"South Dakota, United States Of America",45.81999969,-97.75,400.0,0.0,404938.028777244,0.2666666666666667,0.0,0.3656405339124915,0.6323072005791582
KBRY,Bardstown,"Kentucky, United States Of America",37.81999969,-85.5,192.0,196.0,115115.084426461,0.128,0.5429362880886427,0.8196653850568357,1.4906016731454783
KBRG,Belen,"New Mexico, United States Of America",34.65000153,-106.83000183,1585.0,241.0,10376.157079304,1.0,0.667590027700831,0.9837451338301243,2.6513351615309553
KBNW,Boone Muni,"Iowa, United States Of America",42.02999878,-93.83000183,350.0,140.0,542652.460499543,0.23333333333333328,0.3878116343490305,0.14990269954880636,0.7710476672311701
KBNL,Barnwell,"South Carolina, United States Of America",33.25,-81.37999725,76.0,185.0,199709.452890718,0.05066666666666664,0.5124653739612188,0.6871432838972132,1.2502753245250986
KBKT,Blackstone Army,"Virginia, United States Of America",37.06999969,-77.94999695,134.0,171.0,80419.2014221883,0.08933333333333338,0.47368421052631576,0.8740185459206986,1.4370360897803478
KBKS,Falfurrias,"Texas, United States Of America",27.20000076,-98.12000275,34.0,115.0,190067.014587802,0.022666666666666613,0.3185595567867036,0.7022487360378528,1.043474959491223
KBKN,Blackwell,"Oklahoma, United States Of America",36.75,-97.34999847,208.0,139.0,239302.895060665,0.13866666666666672,0.3850415512465374,0.6251178057979193,1.1488260237111234
KBEA,Beeville Muni,"Texas, United States Of America",28.37000084,-97.77999878,83.0,125.0,256291.230457072,0.055333333333333345,0.3462603878116344,0.5985045696829469,1.0000982908279146
KBDH,Willmar Muni,"Minnesota, United States Of America",45.11999893,-95.12999725,341.0,125.0,334201.976850124,0.2273333333333334,0.3462603878116344,0.4764527593513381,1.050046480496306
KBCK,Black River Fall,"Wisconsin, United States Of America",44.25,-90.84999847,256.0,158.0,233863.949328927,0.17066666666666663,0.4376731301939058,0.6336382372350029,1.2419780340955753
